ID.WHO.city,Region,iso3,Country,City,PM10_mean,PM10_year,PM10_stations,PM10_note,PM25_mean,PM25_year,PM25_stations,PM25_note,PM10_temporal_coverage,PM25_temporal_coverage,reference,countrycode,PM10_annually_rep,PM25_annually_rep,PM10_more_75,PM25_more_75,row_id,latitude,longitude
1,Emr LMI,AFG,Afghanistan,Kabul,260,2009,"1 station, 1 station: urban",measured data,86,2009,"1 station, 1 station: urban",measured data, <75%, <75%,"Magnusson et al., Broad Exposure Screening of Air Pollutants in the Occupational Environment of Swedish Soldiers Deployed in Afghanistan; MILITARY MEDICINE, 177, 3:318, 2012",AF,FALSE,FALSE,FALSE,FALSE,1,34.5197058,69.1624302
2,Emr LMI,AFG,Afghanistan,Mazar-e Sharif,334,2009,"1 station, 1 station: urban outskirts",measured data,68,2009,"1 station, 1 station: urban outskirts",measured data, <75%, <75%,"Magnusson et al., Broad Exposure Screening of Air Pollutants in the Occupational Environment of Swedish Soldiers Deployed in Afghanistan; MILITARY MEDICINE, 177, 3:318, 2012",AF,FALSE,FALSE,FALSE,FALSE,2,36.7113366,67.1087511
3,Eur LMI,ALB,Albania,TIRANA,31.61542142,2013,"1 station, traffic, urban",measured data,16.06236628,2013,"1 station, traffic, urban",measured data, >75%, >75%,"European Environment Agency, Air quality e-reporting database",AL,FALSE,FALSE,TRUE,TRUE,3,41.3158857,19.9009122
4,Eur HI,AND,Andorra,Escaldes-Engordany,18,2014,"1 station, urban",measured data,11,2014,"1 station, urban",measured data, NA, NA,Qualitat de l'aire a Andorra,AD,FALSE,FALSE,FALSE,FALSE,4,42.4865768,1.6072646
5,Amr HI,ARG,Argentina,Buenos Aires,26.1516666666667,2015,"3 stations, residencial commercial",measured data,14.1595930493704,2015,-,converted from PM10, >75%, NA,"Agencia de Proteccion Ambiental, Buenos Aires",AR,FALSE,FALSE,TRUE,FALSE,5,-34.6143904,-58.4460878
6,Wpr HI,AUS,Australia,Adelaide,16.6571428571429,2014,"7 stations, Residential (outer urban) and residential/light industry",measured data,7.1,2014,"2 stations, Residential (outer urban)",measured data, NA, NA,Environment Protection Authority,AU,FALSE,FALSE,FALSE,FALSE,6,-34.9274283,138.599899
7,Wpr HI,AUS,Australia,Albany,15.999,2014,"1 station, rural (small town)",measured data,6.86359805584021,2014,-,converted from PM10, NA, NA,http://www.der.wa.gov.au/your-environment/air,AU,FALSE,FALSE,FALSE,FALSE,7,-35.0247821,117.883608
8,Wpr HI,AUS,Australia,Albury,15.9,2014,"1 station, Rural (small town)",measured data,6.82112688842173,2014,-,converted from PM10, NA, NA,http://www.environment.nsw.gov.au/AQMS/,AU,FALSE,FALSE,FALSE,FALSE,8,-36.0148061,146.9821715
9,Wpr HI,AUS,Australia,Ayr,19.9,2014,"1 station, Rural (small town)",measured data,8.53713365280456,2014,-,converted from PM10, NA, NA,http://www.qld.gov.au/environment/pollution/monitoring/air-monitoring/network-stations/,AU,FALSE,FALSE,FALSE,FALSE,9,-19.5758596,147.4044626
10,Wpr HI,AUS,Australia,Bathurst,14.6,2014,"1 station, Rural (small town)",measured data,6.26342468999731,2014,-,converted from PM10, NA, NA,http://www.environment.nsw.gov.au/AQMS/,AU,FALSE,FALSE,FALSE,FALSE,10,-33.4180907,149.5785926
11,Wpr HI,AUS,Australia,Brisbane,15.8375,2014,"8 stations, Residential (inner urban)",measured data,5.725,2014,"4 stations, Residential (inner urban)",measured data, >75%, >75%,http://www.qld.gov.au/environment/pollution/monitoring/air-monitoring/network-stations/,AU,FALSE,FALSE,TRUE,TRUE,11,-27.4689681,153.0234991
12,Wpr HI,AUS,Australia,Bunbury,16.1,2014,"1 station, rural (small town)",measured data,7.778,2014,"1 station, rural (small town)",measured data, NA, >75%,http://www.der.wa.gov.au/your-environment/air,AU,FALSE,FALSE,FALSE,TRUE,12,-33.3403541,115.6336365
13,Wpr HI,AUS,Australia,Busselton,16.7831506249092,2014,-,converted from PM2.5,7.2,2014,"1 station, rural (small town)",measured data, NA, >75%,http://www.der.wa.gov.au/your-environment/air,AU,FALSE,FALSE,FALSE,TRUE,13,-33.6444989,115.3488754
14,Wpr HI,AUS,Australia,Canberra,15.8507533679698,2014,-,converted from PM2.5,6.8,2014,"1 station, Monash district playing fields",measured data, NA, >75%,http://www.environment.act.gov.au/__data/assets/pdf_file/0005/745646/2014-ACT-Air-Quality-Report-v1-0.pdf,AU,FALSE,FALSE,FALSE,TRUE,14,-35.2819366,149.128894
15,Wpr HI,AUS,Australia,Central Coast,12.8204622829167,2014,-,converted from PM2.5,5.5,2014,"1 station, race course",measured data, NA, >75%,http://www.environment.nsw.gov.au/resources/aqms/150004nswairqual14.pdf,AU,FALSE,FALSE,FALSE,TRUE,15,-33.42,151.396
16,Wpr HI,AUS,Australia,Collie,19.2,2014,"1 station, rural (small town)",measured data,8.23683246903756,2014,-,converted from PM10, NA, NA,http://www.der.wa.gov.au/your-environment/air,AU,FALSE,FALSE,FALSE,FALSE,16,-33.3591222,116.1536169
17,Wpr HI,AUS,Australia,Darwin,18.8810444530228,2014,-,converted from PM2.5,8.1,2014,"1 station, residential",measured data, NA, >75%,http://www.ntepa.nt.gov.au/__data/assets/pdf_file/0011/359048/nepm_compliance_report_nt_2014.pdf,AU,FALSE,FALSE,FALSE,TRUE,17,-12.4604399,130.8410469
18,Wpr HI,AUS,Australia,"Devonport, Tasmania",14.9183561110304,2013,-,converted from PM2.5,6.4,2013,"1 station, residential",measured data, NA, >75%,Environment Protection Authority,AU,FALSE,FALSE,FALSE,TRUE,18,-41.179756,146.3613011
19,Wpr HI,AUS,Australia,Geelong,17.5,2014,"1 station, Residential/Light Industry",measured data,7.50752959417486,2014,-,converted from PM10, >75%, NA,"EPA Victoria, Environment Protection Authority Macleod",AU,FALSE,FALSE,TRUE,FALSE,19,-38.1492812,144.3598269
20,Wpr HI,AUS,Australia,Geraldton,22.3,2014,"1 station, rural (small town)",measured data,9.56673771143425,2014,-,converted from PM10, NA, NA,http://www.der.wa.gov.au/your-environment/air,AU,FALSE,FALSE,FALSE,FALSE,20,-28.7703499,114.6147159
21,Wpr HI,AUS,Australia,Gladstone,14.025,2014,"4 stations, Residential (outer urban)",measured data,4.95,2014,"4 stations, Residential (outer urban)",measured data, >75%, >75%,http://www.qld.gov.au/environment/pollution/monitoring/air-monitoring/network-stations/,AU,FALSE,FALSE,TRUE,TRUE,21,-23.8431723,151.256132
22,Wpr HI,AUS,Australia,"Hobart, Tasmania",14.2190581683258,2013,-,converted from PM2.5,6.1,2013,"1 station, residential",measured data, NA, >75%,Environment Protection Authority,AU,FALSE,FALSE,FALSE,TRUE,22,-42.8825087,147.3281233
23,Wpr HI,AUS,Australia,La Trobe Valley,19.95,2013.5,"2 stations, residential, rural",measured data,9.8,2014,"3 stations, residential, rural",measured data, >75%, >75%,http://www.epa.vic.gov.au/our-work/monitoring-the-environment/monitoring-victorias-air/monitoring-results/~/media/Files/Our%20work/Monitoring%20the%20environment/Monitoring%20Vics%20air/monitoring%20results/2013-data-tables.pdf,AU,FALSE,FALSE,TRUE,TRUE,23,-37.7213196,145.0488098
24,Wpr HI,AUS,Australia,"Launceston, Tasmania",18.8810444530228,2013,-,converted from PM2.5,8.1,2013,"1 station, Rural (small town)",measured data, NA, <75 % but annually representative,Environment Protection Authority,AU,FALSE,TRUE,FALSE,FALSE,24,-41.4340812,147.1373496
25,Wpr HI,AUS,Australia,Lower Hunter,17.3270490247905,2014,-,converted from PM2.5,7.43333333333333,2014,"3 stations, high school",measured data, NA, >75%,http://www.environment.nsw.gov.au/resources/aqms/150004nswairqual14.pdf,AU,FALSE,FALSE,FALSE,TRUE,25,-32.65568,151.3278171
26,Wpr HI,AUS,Australia,Mackay,17.2,2014,"1 station, residential rural",measured data,7.37882908684615,2014,-,converted from PM10, >75%, NA,http://www.qld.gov.au/environment/assets/documents/pollution/monitoring/air-reports/air-monitoring-report.pdf,AU,FALSE,FALSE,TRUE,FALSE,26,-21.1419559,149.1865149
27,Wpr HI,AUS,Australia,Melbourne,18.75,2013.8,"10 stations, Residential/Light Industry",measured data,7.7,2014,"2 stations, Residential/Light Industry",measured data, >75%, NA,http://www.epa.vic.gov.au/our-work/monitoring-the-environment/monitoring-victorias-air/monitoring-results/~/media/Files/Our%20work/Monitoring%20the%20environment/Monitoring%20Vics%20air/monitoring%20results/2013-data-tables.pdf,AU,FALSE,FALSE,TRUE,FALSE,27,-37.8142175,144.9631608
28,Wpr HI,AUS,Australia,Moranbah,20.5,2014,"1 station, industrial/residential",measured data,8.79453466746198,2014,-,converted from PM10, NA, NA,http://www.qld.gov.au/environment/assets/documents/pollution/monitoring/air-reports/air-monitoring-report.pdf,AU,FALSE,FALSE,FALSE,FALSE,28,-22.0030413,148.0432658
29,Wpr HI,AUS,Australia,Mount Isa,15.7,2014,"1 station, industrial/residential",measured data,6.73532655020259,2014,-,converted from PM10, >75%, NA,http://www.qld.gov.au/environment/assets/documents/pollution/monitoring/air-reports/air-monitoring-report.pdf,AU,FALSE,FALSE,TRUE,FALSE,29,-20.7289897,139.4931522
30,Wpr HI,AUS,Australia,Muswellbrook,21.4,2014,"1 station, Residential (outer urban)",measured data,9.18063618944812,2014,-,converted from PM10, NA, NA,http://www.environment.nsw.gov.au/AQMS/,AU,FALSE,FALSE,FALSE,FALSE,30,-32.2687521,150.8929012
31,Wpr HI,AUS,Australia,Newcastle,19.2333333333333,2014,"3 stations, Residential (outer urban)",measured data,8.25113252540742,2014,-,converted from PM10, NA, NA,http://www.environment.nsw.gov.au/AQMS/,AU,FALSE,FALSE,FALSE,FALSE,31,-32.927288,151.7812534
32,Wpr HI,AUS,Australia,Palmerston,21.5616865667236,2014,-,converted from PM2.5,9.25,2014,"1 station, industrial/residential",measured data, NA, >75%,http://www.ntepa.nt.gov.au/__data/assets/pdf_file/0011/359048/nepm_compliance_report_nt_2014.pdf,AU,FALSE,FALSE,FALSE,TRUE,32,-12.4915783,130.9926318
33,Wpr HI,AUS,Australia,Perth,16.7666666666667,2014,"3 stations, Residential (outer urban)",measured data,7.95,2014,"4 stations, Residential (outer urban)",measured data, NA, NA,http://www.der.wa.gov.au/your-environment/air,AU,FALSE,FALSE,FALSE,FALSE,33,-31.952712,115.8604796
34,Wpr HI,AUS,Australia,Singleton,21,2014,"1 station, Rural (small town)",measured data,9.00903551300983,2014,-,converted from PM10, NA, NA,http://www.environment.nsw.gov.au/AQMS/,AU,FALSE,FALSE,FALSE,FALSE,34,-32.5664043,151.1733972
35,Wpr HI,AUS,Australia,Sydney,16.56,2014,"15 stations, Residential (outer urban)",measured data,7.68,2014,"5 stations, Residential (outer urban)",measured data, NA, NA,http://www.environment.nsw.gov.au/AQMS/,AU,FALSE,FALSE,FALSE,FALSE,35,-33.8548156,151.2164539
36,Wpr HI,AUS,Australia,Tamworth,15.8,2014,"1 station, Rural (small town)",measured data,6.77822671931216,2014,-,converted from PM10, NA, NA,http://www.environment.nsw.gov.au/AQMS/,AU,FALSE,FALSE,FALSE,FALSE,36,-31.0900742,150.9290159
37,Wpr HI,AUS,Australia,Townsville,16.75,2014,"2 stations, residential",measured data,7.18577832585308,2014,-,converted from PM10, >75%, NA,http://www.environment.nsw.gov.au/resources/aqms/150004nswairqual14.pdf,AU,FALSE,FALSE,TRUE,FALSE,37,-19.256939,146.8239537
38,Wpr HI,AUS,Australia,Upper Hunter,19.658042167139,2014,-,converted from PM2.5,8.43333333333333,2014,"3 stations, NA",measured data, NA, >75%,http://www.environment.nsw.gov.au/resources/aqms/150004nswairqual14.pdf,AU,FALSE,FALSE,FALSE,TRUE,38,-31.9680644,151.1438235
39,Wpr HI,AUS,Australia,Wagga Wagga,20.7,2014,"1 station, Rural (small town)",measured data,7.5,2014,"1 station, Rural (small town)",measured data, NA, >75%,http://www.environment.nsw.gov.au/resources/aqms/150004nswairqual14.pdf,AU,FALSE,FALSE,FALSE,TRUE,39,-35.1149999,147.3677778
40,Wpr HI,AUS,Australia,Whyalla,16.3,2014,"1 station, rural (small town)",measured data,6.99272756486002,2014,-,converted from PM10, NA, NA,http://www.epa.sa.gov.au/data_and_publications/air_quality_monitoring,AU,FALSE,FALSE,FALSE,FALSE,40,-33.0381091,137.5801318
41,Wpr HI,AUS,Australia,Wollongong,17.0666666666667,2014,"3 stations, Residential (outer urban)",measured data,7,2014,"1 station, Residential (outer urban)",measured data, NA, NA,http://www.environment.nsw.gov.au/resources/aqms/150004nswairqual14.pdf,AU,FALSE,FALSE,FALSE,FALSE,41,-34.424394,150.89385
42,Wpr HI,AUS,Australia,Wyong,15.1,2014,"1 station, Residential (outer urban)",measured data,6.47792553554517,2014,-,converted from PM10, NA, NA,http://www.environment.nsw.gov.au/AQMS/,AU,FALSE,FALSE,FALSE,FALSE,42,-33.2856409,151.4253064
43,Eur HI,AUT,Austria,ARNOLDSTEIN,14.17572947,2013,"1 station, industrial, suburban",measured data,10.3907875225591,2013,-,converted from PM10, >75%, NA,"European Environment Agency, Air quality e-reporting database",AT,FALSE,FALSE,TRUE,FALSE,43,46.548718,13.7071246
44,Eur HI,AUT,Austria,BAD ISCHL,15.8690373646019,2013,-,converted from PM2.5,11.63197956,2013,"1 station, background, suburban",measured data, NA, >75%,"European Environment Agency, Air quality e-reporting database",AT,FALSE,FALSE,FALSE,TRUE,44,47.7115299,13.6239333
45,Eur HI,AUT,Austria,BAD VöSLAU,18.07442396,2013,"1 station, background, suburban",measured data,13.2485244839405,2013,-,converted from PM10, >75%, NA,"European Environment Agency, Air quality e-reporting database",AT,FALSE,FALSE,TRUE,FALSE,45,47.9655519,16.2148073
46,Eur HI,AUT,Austria,BIEDERMANNSDORF,20.23320746,2013,"1 station, traffic, suburban",measured data,14.830909411868,2013,-,converted from PM10, >75%, NA,"European Environment Agency, Air quality e-reporting database",AT,FALSE,FALSE,TRUE,FALSE,46,48.0835144,16.345876
47,Eur HI,AUT,Austria,BLUDENZ,17.55710306,2013,"1 station, background, suburban",measured data,12.8693290736263,2013,-,converted from PM10, >75%, NA,"European Environment Agency, Air quality e-reporting database",AT,FALSE,FALSE,TRUE,FALSE,47,47.153037,9.8219314
48,Eur HI,AUT,Austria,BRUCK AN DER MUR,23.89818818,2013,"1 station, background, suburban",measured data,17.5173345455014,2013,-,converted from PM10, >75%, NA,"European Environment Agency, Air quality e-reporting database",AT,FALSE,FALSE,TRUE,FALSE,48,47.4121987,15.2721668
49,Eur HI,AUT,Austria,DEUTSCHLANDSBERG,22.30692307,2013,"1 station, background, suburban",measured data,16.3509397095204,2013,-,converted from PM10, >75%, NA,"European Environment Agency, Air quality e-reporting database",AT,FALSE,FALSE,TRUE,FALSE,49,46.8146272,15.2137799
50,Eur HI,AUT,Austria,DORNBIRN,19.00826446,2013,"1 station, background, urban",measured data,13.9330281093797,2013,-,converted from PM10, >75%, NA,"European Environment Agency, Air quality e-reporting database",AT,FALSE,FALSE,TRUE,FALSE,50,47.4135969,9.7423955
51,Eur HI,AUT,Austria,EBENTHAL,20.39641161,2013,"1 station, background, rural",measured data,14.9505377984734,2013,-,converted from PM10, >75%, NA,"European Environment Agency, Air quality e-reporting database",AT,FALSE,FALSE,TRUE,FALSE,51,48.4372037,16.7862432
52,Eur HI,AUT,Austria,EISENSTADT,23.54172307,2013,"1 station, background, suburban",measured data,18.83130169,2013,"1 station, background, suburban",measured data, >75%, >75%,"European Environment Agency, Air quality e-reporting database",AT,FALSE,FALSE,TRUE,TRUE,52,47.84621,16.5237586
53,Eur HI,AUT,Austria,FELDKIRCH,23.1436464,2013,"1 station, traffic, urban",measured data,16.9642566012964,2013,-,converted from PM10, >75%, NA,"European Environment Agency, Air quality e-reporting database",AT,FALSE,FALSE,TRUE,FALSE,53,47.2375671,9.5981724
54,Eur HI,AUT,Austria,FüRSTENFELD,25.75818328,2013,"1 station, background, suburban",measured data,18.880708043705,2013,-,converted from PM10, >75%, NA,"European Environment Agency, Air quality e-reporting database",AT,FALSE,FALSE,TRUE,FALSE,54,47.0499925,16.0816815
55,Eur HI,AUT,Austria,Gänserndorf,20.6409419,2013,"1 station, background, suburban",measured data,15.1297781184581,2013,-,converted from PM10, >75%, NA,"European Environment Agency, Air quality e-reporting database",AT,FALSE,FALSE,TRUE,FALSE,55,48.3404132,16.7184526
56,Eur HI,AUT,Austria,GRAZ,24.824225412,2013,"5 stations, background suburban",measured data,18.79859978,2013,"2 stations, background suburban",measured data, >75%, NA,"European Environment Agency, Air quality e-reporting database",AT,FALSE,FALSE,TRUE,FALSE,56,47.0702563,15.4385716
57,Eur HI,AUT,Austria,GROSSENZERSDORF,23.9878225930124,2013,-,converted from PM2.5,17.58303643,2013,"1 station, background, rural-nearcity",measured data, NA, >75%,"European Environment Agency, Air quality e-reporting database",AT,FALSE,FALSE,FALSE,TRUE,57,47.33333,13.33333
58,Eur HI,AUT,Austria,HALL IN TIROL,24.23667582,2013,"1 station, traffic, urban",measured data,17.7654454560331,2013,-,converted from PM10, >75%, NA,"European Environment Agency, Air quality e-reporting database",AT,FALSE,FALSE,TRUE,FALSE,58,47.2816648,11.5075349
59,Eur HI,AUT,Austria,HALLEIN,24.05248618,2013,"1 station, traffic, urban",measured data,17.6304347380911,2013,-,converted from PM10, >75%, NA,"European Environment Agency, Air quality e-reporting database",AT,FALSE,FALSE,TRUE,FALSE,59,47.6821521,13.0956313
60,Eur HI,AUT,Austria,HARTBERG,23.57063339,2013,"1 station, background, suburban",measured data,17.2772373969145,2013,-,converted from PM10, >75%, NA,"European Environment Agency, Air quality e-reporting database",AT,FALSE,FALSE,TRUE,FALSE,60,47.2809371,15.9691769
61,Eur HI,AUT,Austria,HEITERWANG,13.02213213,2013,"1 station, traffic, rural",measured data,9.54520247722532,2013,-,converted from PM10, >75%, NA,"European Environment Agency, Air quality e-reporting database",AT,FALSE,FALSE,TRUE,FALSE,61,47.4458377,10.7458918
62,Eur HI,AUT,Austria,HIMBERG,23.43267223,2013,"1 station, traffic, suburban",measured data,17.1761120824847,2013,-,converted from PM10, >75%, NA,"European Environment Agency, Air quality e-reporting database",AT,FALSE,FALSE,TRUE,FALSE,62,47.7874444,15.9236398
63,Eur HI,AUT,Austria,HöCHST,21.33149171,2013,"1 station, traffic, rural",measured data,15.6359500487731,2013,-,converted from PM10, >75%, NA,"European Environment Agency, Air quality e-reporting database",AT,FALSE,FALSE,TRUE,FALSE,63,47.4598203,9.6379578
64,Eur HI,AUT,Austria,IMST,18.13013151,2013,"1 station, traffic, rural",measured data,13.289358030932,2013,-,converted from PM10, >75%, NA,"European Environment Agency, Air quality e-reporting database",AT,FALSE,FALSE,TRUE,FALSE,64,47.2381536,10.7406982
65,Eur HI,AUT,Austria,INNSBRUCK,20.588430765,2013,"2 stations, traffic, urban",measured data,14.42780821,2013,"1 station, traffic, urban",measured data, >75%, >75%,"European Environment Agency, Air quality e-reporting database",AT,FALSE,FALSE,TRUE,TRUE,65,47.2654296,11.3927685
66,Eur HI,AUT,Austria,JUDENBURG,17.11141254,2013,"1 station, background, suburban",measured data,12.5426386197813,2013,-,converted from PM10, >75%, NA,"European Environment Agency, Air quality e-reporting database",AT,FALSE,FALSE,TRUE,FALSE,66,47.1694082,14.6601079
67,Eur HI,AUT,Austria,KAPFENBERG,17.61163382,2013,"1 station, background, urban",measured data,12.909300035389,2013,-,converted from PM10, >75%, NA,"European Environment Agency, Air quality e-reporting database",AT,FALSE,FALSE,TRUE,FALSE,67,47.4405481,15.2901669
68,Eur HI,AUT,Austria,KEMATEN,20.31965684,2013,"1 station, traffic, urban",measured data,14.8942766721517,2013,-,converted from PM10, >75%, NA,"European Environment Agency, Air quality e-reporting database",AT,FALSE,FALSE,TRUE,FALSE,68,48.0294158,14.7675672
69,Eur HI,AUT,Austria,KLAGENFURT,23.02879097,2013,"2 stations, traffic, urban",measured data,13.783685825,2013,"2 stations, traffic, urban",measured data, >75%, >75%,"European Environment Agency, Air quality e-reporting database",AT,FALSE,FALSE,TRUE,TRUE,69,46.6228162,14.3079604
70,Eur HI,AUT,Austria,KLOSTERNEUBURG,26.82380952,2013,"1 station, traffic, urban",measured data,19.6618104103759,2013,-,converted from PM10, >75%, NA,"European Environment Agency, Air quality e-reporting database",AT,FALSE,FALSE,TRUE,FALSE,70,48.2989313,16.2905343
71,Eur HI,AUT,Austria,KNITTELFELD,21.34033627,2013,"1 station, background, urban",measured data,15.6424330974152,2013,-,converted from PM10, >75%, NA,"European Environment Agency, Air quality e-reporting database",AT,FALSE,FALSE,TRUE,FALSE,71,47.2134435,14.832071
72,Eur HI,AUT,Austria,KREMS,23.64537015,2013,"1 station, background, urban",measured data,17.3320193250635,2013,-,converted from PM10, >75%, NA,"European Environment Agency, Air quality e-reporting database",AT,FALSE,FALSE,TRUE,FALSE,72,48.4108382,15.6003717
73,Eur HI,AUT,Austria,KUFSTEIN,17.43291355,2013,"1 station, traffic, urban",measured data,12.7782983570998,2013,-,converted from PM10, >75%, NA,"European Environment Agency, Air quality e-reporting database",AT,FALSE,FALSE,TRUE,FALSE,73,47.582996,12.1692134
74,Eur HI,AUT,Austria,LEOBEN,19.594179815,2013,"2 stations, background, urban",measured data,14.3625031478878,2013,-,converted from PM10, >75%, NA,"European Environment Agency, Air quality e-reporting database",AT,FALSE,FALSE,TRUE,FALSE,74,47.3827417,15.0942137
75,Eur HI,AUT,Austria,LIENZ,19.62969863,2013,"1 station, traffic, urban",measured data,14.73121883,2013,"1 station, traffic, urban",measured data, >75%, >75%,"European Environment Agency, Air quality e-reporting database",AT,FALSE,FALSE,TRUE,TRUE,75,48.3059078,14.286198
76,Eur HI,AUT,Austria,LIEZEN,20.20033926,2013,"1 station, background, suburban",measured data,14.8068170726927,2013,-,converted from PM10, >75%, NA,"European Environment Agency, Air quality e-reporting database",AT,FALSE,FALSE,TRUE,FALSE,76,47.567685,14.2420508
77,Eur HI,AUT,Austria,LINZ,25.9800604566667,2013,"3 stations, background, urban",measured data,17.4025427466667,2013,"3 stations, background, urban",measured data, >75%, >75%,"European Environment Agency, Air quality e-reporting database",AT,FALSE,FALSE,TRUE,TRUE,77,48.3059078,14.286198
78,Eur HI,AUT,Austria,LUSTENAU,20.373669585,2013,"2 stations, background, urban",measured data,14.9338679297299,2013,-,converted from PM10, >75%, NA,"European Environment Agency, Air quality e-reporting database",AT,FALSE,FALSE,TRUE,FALSE,78,47.4276538,9.6599406
79,Eur HI,AUT,Austria,MöDLING,20.61672051,2013,"1 station, background, suburban",measured data,15.1120238774842,2013,-,converted from PM10, >75%, NA,"European Environment Agency, Air quality e-reporting database",AT,FALSE,FALSE,TRUE,FALSE,79,48.0782179,16.2770715
80,Eur HI,AUT,Austria,MüRZZUSCHLAG,17.20441612,2013,"1 station, background, suburban",measured data,12.6108100984105,2013,-,converted from PM10, >75%, NA,"European Environment Agency, Air quality e-reporting database",AT,FALSE,FALSE,TRUE,FALSE,80,47.5948488,15.683355
81,Eur HI,AUT,Austria,SALZBURG,25.27123287,2013,"1 station, traffic, urban",measured data,15.959967895,2013,"2 stations, traffic, urban",measured data, >75%, >75%,"European Environment Agency, Air quality e-reporting database",AT,FALSE,FALSE,TRUE,TRUE,81,47.7981346,13.0464806
82,Eur HI,AUT,Austria,SANKT ANDRä IM LAVANTTAL,24.00713827,2013,"1 station, industrial, urban",measured data,17.5971947910111,2013,-,converted from PM10, >75%, NA,"European Environment Agency, Air quality e-reporting database",AT,FALSE,FALSE,TRUE,FALSE,82,46.7628399,14.8417065
83,Eur HI,AUT,Austria,SANKT POELTEN,24.27761938,2013,"1 station, background, suburban",measured data,17.61350394,2013,"1 station, background, suburban",measured data, >75%, >75%,"European Environment Agency, Air quality e-reporting database",AT,FALSE,FALSE,TRUE,TRUE,83,48.2043985,15.6229118
84,Eur HI,AUT,Austria,SANKT VEIT AN DER GLAN,21.79284849,2013,"1 station, background, urban",measured data,15.9741238466872,2013,-,converted from PM10, >75%, NA,"European Environment Agency, Air quality e-reporting database",AT,FALSE,FALSE,TRUE,FALSE,84,46.7672516,14.3613196
85,Eur HI,AUT,Austria,SCHWAZ,20.33323287,2013,"1 station, traffic, suburban",measured data,14.904227880901,2013,-,converted from PM10, >75%, NA,"European Environment Agency, Air quality e-reporting database",AT,FALSE,FALSE,TRUE,FALSE,85,47.3449529,11.7084253
86,Eur HI,AUT,Austria,SCHWECHAT,23.30740428,2013,"1 station, traffic, suburban",measured data,17.0842908711254,2013,-,converted from PM10, >75%, NA,"European Environment Agency, Air quality e-reporting database",AT,FALSE,FALSE,TRUE,FALSE,86,48.1397436,16.4780312
87,Eur HI,AUT,Austria,SPITTAL AN DER DRAU,20.37255082,2013,"1 station, background, suburban",measured data,14.9330478767353,2013,-,converted from PM10, >75%, NA,"European Environment Agency, Air quality e-reporting database",AT,FALSE,FALSE,TRUE,FALSE,87,46.7982211,13.4963308
88,Eur HI,AUT,Austria,STEYR,19.60164835,2013,"1 station, background, suburban",measured data,14.80660939,2013,"1 station, background, suburban",measured data, >75%, >75%,"European Environment Agency, Air quality e-reporting database",AT,FALSE,FALSE,TRUE,TRUE,88,48.0390046,14.4191276
89,Eur HI,AUT,Austria,STEYREGG,26.12693498,2013,"1 station, industrial, suburban",measured data,19.1510024628663,2013,-,converted from PM10, >75%, NA,"European Environment Agency, Air quality e-reporting database",AT,FALSE,FALSE,TRUE,FALSE,89,48.2854468,14.3718463
90,Eur HI,AUT,Austria,STOCKERAU,23.04775248,2013,"1 station, traffic, suburban",measured data,16.8939665079694,2013,-,converted from PM10, >75%, NA,"European Environment Agency, Air quality e-reporting database",AT,FALSE,FALSE,TRUE,FALSE,90,48.3846124,16.2076303
91,Eur HI,AUT,Austria,TRAISMAIER,21.62120208,2013,"1 station, background, rural-regional",measured data,15.8483072967103,2013,-,converted from PM10, >75%, NA,"European Environment Agency, Air quality e-reporting database",AT,FALSE,FALSE,TRUE,FALSE,91,47.33333,13.33333
92,Eur HI,AUT,Austria,TULLN,22.43511405,2013,"1 station, background, suburban",measured data,16.4449034972964,2013,-,converted from PM10, >75%, NA,"European Environment Agency, Air quality e-reporting database",AT,FALSE,FALSE,TRUE,FALSE,92,48.3478322,15.9632679
93,Eur HI,AUT,Austria,VILLACH,19.16081802,2013,"1 station, traffic, urban",measured data,14.0448496301786,2013,-,converted from PM10, >75%, NA,"European Environment Agency, Air quality e-reporting database",AT,FALSE,FALSE,TRUE,FALSE,93,46.6167284,13.8500268
94,Eur HI,AUT,Austria,VöCKLABRUCK,20.885276475472,2013,-,converted from PM2.5,15.30887498,2013,"1 station, background, suburban",measured data, NA, >75%,"European Environment Agency, Air quality e-reporting database",AT,FALSE,FALSE,FALSE,TRUE,94,48.0078587,13.6460378
95,Eur HI,AUT,Austria,WEIZ,25.58695065,2013,"1 station, traffic, suburban",measured data,18.7551947938208,2013,-,converted from PM10, >75%, NA,"European Environment Agency, Air quality e-reporting database",AT,FALSE,FALSE,TRUE,FALSE,95,47.2174206,15.6221694
96,Eur HI,AUT,Austria,WELS,22.93150684,2013,"1 station, background, urban",measured data,17.64124293,2013,"1 station, background, urban",measured data, >75%, >75%,"European Environment Agency, Air quality e-reporting database",AT,FALSE,FALSE,TRUE,TRUE,96,48.1566957,14.0244047
97,Eur HI,AUT,Austria,WIEN,25.7337748533333,2013,"9 stations, traffic, urban",measured data,18.001366825,2013,"6 stations, traffic, urban",measured data, >75%, >75%,"European Environment Agency, Air quality e-reporting database",AT,FALSE,FALSE,TRUE,TRUE,97,48.2083537,16.3725042
98,Eur HI,AUT,Austria,WIENER NEUDORF,23.05328385,2013,"1 station, traffic, suburban",measured data,16.40057414,2013,"1 station, traffic, suburban",measured data, >75%, >75%,"European Environment Agency, Air quality e-reporting database",AT,FALSE,FALSE,TRUE,TRUE,98,48.083362,16.3143717
99,Eur HI,AUT,Austria,WIENER NEUSTADT,17.94066778,2013,"1 station, background, suburban",measured data,13.1504814132716,2013,-,converted from PM10, >75%, NA,"European Environment Agency, Air quality e-reporting database",AT,FALSE,FALSE,TRUE,FALSE,99,47.8131761,16.2440318
100,Eur HI,AUT,Austria,WOLFSBERG,25.69186003,2013,"1 station, traffic, urban",measured data,18.99303248,2013,"1 station, traffic, urban",measured data, >75%, >75%,"European Environment Agency, Air quality e-reporting database",AT,FALSE,FALSE,TRUE,TRUE,100,46.8390956,14.8448315
101,Eur HI,AUT,Austria,WöRGL,20.03850528,2013,"1 station, traffic, suburban",measured data,14.6881930185536,2013,-,converted from PM10, >75%, NA,"European Environment Agency, Air quality e-reporting database",AT,FALSE,FALSE,TRUE,FALSE,101,47.4872718,12.0637633
102,Eur HI,AUT,Austria,ZELTWEG,21.40365991,2013,"1 station, background, suburban",measured data,15.6888492264608,2013,-,converted from PM10, >75%, NA,"European Environment Agency, Air quality e-reporting database",AT,FALSE,FALSE,TRUE,FALSE,102,47.1912045,14.7549244
103,Emr HI,BHR,Bahrain,Hamad Town,317.88,2012,"1 station, 1 Residential urban station",measured data,65.52,2012,"1 station, 1 Residential urban station",measured data, NA, >75%,"Supreme Council of Environment, 2013.",BH,FALSE,FALSE,FALSE,TRUE,103,26.1267463,50.4983356
104,Emr HI,BHR,Bahrain,Hidd,178.38,2012,"1 station, 1 Residential urban station",measured data,41.44,2012,"1 station, 1 Residential urban station",measured data, NA, >75%,"Supreme Council of Environment, 2013.",BH,FALSE,FALSE,FALSE,TRUE,104,26.2440537,50.6528891
105,Emr HI,BHR,Bahrain,Ma'ameer,257.35,2012,"1 station, 1 Residential Industrial station (Mixed)",measured data,63.95,2012,"1 station, 1 Residential Industrial station (Mixed)",measured data, NA, >75%,"Supreme Council of Environment, 2013.",BH,FALSE,FALSE,FALSE,TRUE,105,26.1331901,50.6151344
106,Emr HI,BHR,Bahrain,Nabih Saleh,244.07,2012,"1 station, 1 Urban background station",measured data,58.2,2012,"1 station, 1 Urban background station",measured data, NA, >75%,"Supreme Council of Environment, 2013.",BH,FALSE,FALSE,FALSE,TRUE,106,26.18238,50.5843
107,Emr HI,BHR,Bahrain,Ras Hayan,250.42,2012,"1 station, 1 Rural background station",measured data,43.92,2012,"1 station, 1 Rural background station",measured data, NA, >75%,"Supreme Council of Environment, 2013.",BH,FALSE,FALSE,FALSE,TRUE,107,26.0313874,50.6094348
108,Sear,BGD,Bangladesh,Barisal,142.355555555556,2014,"1 station, NA",measured data,85.3083333333333,2014,"1 station, NA",measured data, >75%, >75%,"Ministry of Environment and Forests, Clean Air and Sustainable Environment",BD,FALSE,FALSE,TRUE,TRUE,108,22.7047007,90.3709164
109,Sear,BGD,Bangladesh,Chittagong,134.637878787879,2014,"2 stations, NA",measured data,95.1141666666666,2014,"2 stations, NA",measured data, <75 % but annually representative, <75%,"Ministry of Environment and Forests, Clean Air and Sustainable Environment",BD,TRUE,FALSE,FALSE,FALSE,109,22.4237755,91.7236739
110,Sear,BGD,Bangladesh,Dhaka,158.052777777778,2014,"3 stations, NA",measured data,89.6960227272727,2014,"4 stations, NA",measured data, <75 % but annually representative, <75 % but annually representative,"Ministry of Environment and Forests, Clean Air and Sustainable Environment; http://spartan-network.org/",BD,TRUE,TRUE,FALSE,FALSE,110,23.7593572,90.3788136
111,Sear,BGD,Bangladesh,Gazipur,154.633333333333,2014,"1 station, NA",measured data,88.525,2014,"1 station, NA",measured data, >75%, >75%,"Ministry of Environment and Forests, Clean Air and Sustainable Environment",BD,FALSE,FALSE,TRUE,TRUE,111,23.9980797,90.4229848
112,Sear,BGD,Bangladesh,Khulna,108.6,2014,"1 station, NA",measured data,61.0916666666667,2014,"1 station, NA",measured data, <75%, <75%,"Policy impact on air quality in major metropolitan cities in Bangladesh, B.A. Begum, Md. Nasiruddin, P.K. Hopke, A. Markwitz, The African Review of Physics (in press, 2015).",BD,FALSE,FALSE,FALSE,FALSE,112,22.8216956,89.5529444
113,Sear,BGD,Bangladesh,Narayangonj,191.416666666667,2014,"1 station, NA",measured data,105.791666666667,2014,"1 station, NA",measured data, >75%, >75%,"Ministry of Environment and Forests, Clean Air and Sustainable Environment",BD,FALSE,FALSE,TRUE,TRUE,113,24,90
114,Sear,BGD,Bangladesh,Rajshahi,63.9,2014,"1 station, NA",measured data,36.8694527237593,2014,-,converted from PM10, <75%, NA,"Ministry of Environment and Forests, Clean Air and Sustainable Environment",BD,FALSE,FALSE,FALSE,FALSE,114,24.3715513,88.5921038
115,Sear,BGD,Bangladesh,Sylhet,169.7,2014,"1 station, NA",measured data,61.48,2014,"1 station, NA",measured data, <75%, <75%,"Ministry of Environment and Forests, Clean Air and Sustainable Environment",BD,FALSE,FALSE,FALSE,FALSE,115,24.8990911,91.8688101
116,Eur HI,BEL,Belgium,AARSCHOT,23.48305224,2013,"1 station, background, suburban",measured data,15.742543997427,2013,-,converted from PM10, >75%, NA,"European Environment Agency, Air quality e-reporting database",BE,FALSE,FALSE,TRUE,FALSE,116,50.9855815,4.8349499
117,Eur HI,BEL,Belgium,ANDENNE,18.3602205,2013,"1 station, background, rural",measured data,12.58622434,2013,"1 station, background, rural",measured data, >75%, >75%,"European Environment Agency, Air quality e-reporting database",BE,FALSE,FALSE,TRUE,TRUE,117,50.4900943,5.1043923
118,Eur HI,BEL,Belgium,ANTWERPEN,26.748982325,2013,"6 stations, background, urban",measured data,17.10960261,2013,"4 stations, background, urban",measured data, >75%, >75%,"European Environment Agency, Air quality e-reporting database",BE,FALSE,FALSE,TRUE,TRUE,118,51.2211097,4.3997081
119,Eur HI,BEL,Belgium,BERENDRECHT,25.97268394,2013,"1 station, background, suburban",measured data,17.4115406923234,2013,-,converted from PM10, >75%, NA,"European Environment Agency, Air quality e-reporting database",BE,FALSE,FALSE,TRUE,FALSE,119,51.3443828,4.3088461
120,Eur HI,BEL,Belgium,BERTRIX,14.92191411,2013,"1 station, background, rural",measured data,10.30017654,2013,"1 station, background, rural",measured data, >75%, >75%,"European Environment Agency, Air quality e-reporting database",BE,FALSE,FALSE,TRUE,TRUE,120,49.8546564,5.2529266
121,Eur HI,BEL,Belgium,BOOM,25.01139562,2013,"1 station, background, urban",measured data,16.7671132338674,2013,-,converted from PM10, >75%, NA,"European Environment Agency, Air quality e-reporting database",BE,FALSE,FALSE,TRUE,FALSE,121,51.0873789,4.3667216
122,Eur HI,BEL,Belgium,BRUGGE,24.8629374781189,2013,-,converted from PM2.5,16.66759002,2013,"1 station, background, urban",measured data, NA, >75%,"European Environment Agency, Air quality e-reporting database",BE,FALSE,FALSE,FALSE,TRUE,122,51.2315785,3.2080995
123,Eur HI,BEL,Belgium,BRUSSELS,25.5885562616667,2013,"6 stations, background, suburban",measured data,18.247265666,2013,"5 stations, background, suburban",measured data, >75%, >75%,"European Environment Agency, Air quality e-reporting database",BE,FALSE,FALSE,TRUE,TRUE,123,50.8465565,4.351697
124,Eur HI,BEL,Belgium,CHARLEROI,22.9915430575,2013,"4 stations, background suburban, traffic, urban",measured data,14.5675203625,2013,"4 stations, background suburban, traffic, urban",measured data, >75%, >75%,"European Environment Agency, Air quality e-reporting database",BE,FALSE,FALSE,TRUE,TRUE,124,50.4120332,4.4436244
125,Eur HI,BEL,Belgium,CHATELET,21.39687995,2013,"1 station, background, suburban",measured data,13.95344166,2013,"1 station, background, suburban",measured data, >75%, >75%,"European Environment Agency, Air quality e-reporting database",BE,FALSE,FALSE,TRUE,TRUE,125,50.4046075,4.5243511
126,Eur HI,BEL,Belgium,CORROY LE GRAND,20.40099501,2013,"1 station, background, rural",measured data,14.73217377,2013,"1 station, background, rural",measured data, >75%, >75%,"European Environment Agency, Air quality e-reporting database",BE,FALSE,FALSE,TRUE,TRUE,126,50.6617107,4.6747213
127,Eur HI,BEL,Belgium,DESSEL,22.30752961,2013,"1 station, background, rural",measured data,14.9544983663218,2013,-,converted from PM10, >75%, NA,"European Environment Agency, Air quality e-reporting database",BE,FALSE,FALSE,TRUE,FALSE,127,51.2395713,5.113243
128,Eur HI,BEL,Belgium,DESTELBERGEN,25.12444726,2013,"1 station, background, suburban",measured data,16.8429006740388,2013,-,converted from PM10, >75%, NA,"European Environment Agency, Air quality e-reporting database",BE,FALSE,FALSE,TRUE,FALSE,128,51.0556204,3.7978887
129,Eur HI,BEL,Belgium,ENGIS,30.94110187,2013,"1 station, industrial, suburban",measured data,17.27485205,2013,"1 station, industrial, suburban",measured data, >75%, >75%,"European Environment Agency, Air quality e-reporting database",BE,FALSE,FALSE,TRUE,TRUE,129,50.582433,5.4043113
130,Eur HI,BEL,Belgium,EVERGEM,30.218492,2013,"1 station, industrial, suburban",measured data,19.09792921,2013,"1 station, industrial, suburban",measured data, >75%, >75%,"European Environment Agency, Air quality e-reporting database",BE,FALSE,FALSE,TRUE,TRUE,130,51.1087891,3.7078565
131,Eur HI,BEL,Belgium,GENK,26.26167678,2013,"1 station, industrial, urban",measured data,17.6052754101166,2013,-,converted from PM10, >75%, NA,"European Environment Agency, Air quality e-reporting database",BE,FALSE,FALSE,TRUE,FALSE,131,50.9654864,5.5001456
132,Eur HI,BEL,Belgium,GENT,29.857452565,2013,"2 stations, background, urban",measured data,18.913152645,2013,"2 stations, background, urban",measured data, >75%, >75%,"European Environment Agency, Air quality e-reporting database",BE,FALSE,FALSE,TRUE,TRUE,132,51.0538286,3.7250121
133,Eur HI,BEL,Belgium,HABAY LA NEUVE,15.23002124,2013,"1 station, background, rural",measured data,10.70307754,2013,"1 station, background, rural",measured data, >75%, >75%,"European Environment Agency, Air quality e-reporting database",BE,FALSE,FALSE,TRUE,TRUE,133,49.7286061,5.6503942
134,Eur HI,BEL,Belgium,HASSELT,23.62420153,2013,"1 station, background, suburban",measured data,17.66546068,2013,"1 station, background, suburban",measured data, >75%, >75%,"European Environment Agency, Air quality e-reporting database",BE,FALSE,FALSE,TRUE,TRUE,134,50.9303735,5.3378043
135,Eur HI,BEL,Belgium,HERSTAL,20.40998118,2013,"1 station, background, urban",measured data,13.38307951,2013,"1 station, background, urban",measured data, >75%, >75%,"European Environment Agency, Air quality e-reporting database",BE,FALSE,FALSE,TRUE,TRUE,135,50.6701887,5.6403906
136,Eur HI,BEL,Belgium,HOBOKEN,27.64422191,2013,"1 station, background, suburban",measured data,18.5321045682267,2013,-,converted from PM10, >75%, NA,"European Environment Agency, Air quality e-reporting database",BE,FALSE,FALSE,TRUE,FALSE,136,51.1757824,4.3511502
137,Eur HI,BEL,Belgium,HOEVENEN,26.32495647,2013,"1 station, industrial, suburban",measured data,17.71023713,2013,"1 station, industrial, suburban",measured data, >75%, >75%,"European Environment Agency, Air quality e-reporting database",BE,FALSE,FALSE,TRUE,TRUE,137,51.3140742,4.3829168
138,Eur HI,BEL,Belgium,LANDEN,22.89154924,2013,"1 station, background, rural",measured data,15.3460128349979,2013,-,converted from PM10, >75%, NA,"European Environment Agency, Air quality e-reporting database",BE,FALSE,FALSE,TRUE,FALSE,138,50.7493167,5.0790966
139,Eur HI,BEL,Belgium,LIEGE,22.0571495133333,2013,"3 stations, background, suburban",measured data,14.5122659466667,2013,"3 stations, background, suburban",measured data, >75%, >75%,"European Environment Agency, Air quality e-reporting database",BE,FALSE,FALSE,TRUE,TRUE,139,50.6451381,5.5734203
140,Eur HI,BEL,Belgium,MECHELEN,24.91251473,2013,"1 station, background, suburban",measured data,16.7008255662584,2013,-,converted from PM10, >75%, NA,"European Environment Agency, Air quality e-reporting database",BE,FALSE,FALSE,TRUE,FALSE,140,51.0281381,4.4803453
141,Eur HI,BEL,Belgium,MENEN,26.98143549,2013,"1 station, background, suburban",measured data,18.0877865012603,2013,-,converted from PM10, >75%, NA,"European Environment Agency, Air quality e-reporting database",BE,FALSE,FALSE,TRUE,FALSE,141,50.8054013,3.1240163
142,Eur HI,BEL,Belgium,MOERKERKE,23.73991001,2013,"1 station, background, rural",measured data,15.9147360406069,2013,-,converted from PM10, >75%, NA,"European Environment Agency, Air quality e-reporting database",BE,FALSE,FALSE,TRUE,FALSE,142,51.2425251,3.3557241
143,Eur HI,BEL,Belgium,MONS,27.9448247,2013,"1 station, background, suburban",measured data,15.58671127,2013,"1 station, background, suburban",measured data, >75%, >75%,"European Environment Agency, Air quality e-reporting database",BE,FALSE,FALSE,TRUE,TRUE,143,50.4549568,3.951958
144,Eur HI,BEL,Belgium,OOSTROZEBEKE,30.79201753,2013,"1 station, industrial, rural",measured data,20.6423205033746,2013,-,converted from PM10, >75%, NA,"European Environment Agency, Air quality e-reporting database",BE,FALSE,FALSE,TRUE,FALSE,144,50.9343699,3.3470112
145,Eur HI,BEL,Belgium,RETIE,22.4779847428707,2013,-,converted from PM2.5,15.0687679,2013,"1 station, background, rural",measured data, NA, >75%,"European Environment Agency, Air quality e-reporting database",BE,FALSE,FALSE,FALSE,TRUE,145,51.2675862,5.0843883
146,Eur HI,BEL,Belgium,ROESELAERE,28.074151895,2013,"2 stations, background, suburban",measured data,18.8203205818651,2013,-,converted from PM10, >75%, NA,"European Environment Agency, Air quality e-reporting database",BE,FALSE,FALSE,TRUE,FALSE,146,50.9463048,3.1312987
147,Eur HI,BEL,Belgium,SAINTE-ODE,12.86934758,2013,"1 station, background, rural",measured data,9.47061053,2013,"1 station, background, rural",measured data, >75%, >75%,"European Environment Agency, Air quality e-reporting database",BE,FALSE,FALSE,TRUE,TRUE,147,50.029813,5.5308868
148,Eur HI,BEL,Belgium,SERAING,24.57502088,2013,"1 station, industrial, suburban",measured data,15.55829439,2013,"1 station, industrial, suburban",measured data, >75%, >75%,"European Environment Agency, Air quality e-reporting database",BE,FALSE,FALSE,TRUE,TRUE,148,50.5966392,5.5083375
149,Eur HI,BEL,Belgium,SOMME-LEUZE,16.29216234,2013,"1 station, background, rural",measured data,11.15042602,2013,"1 station, background, rural",measured data, >75%, >75%,"European Environment Agency, Air quality e-reporting database",BE,FALSE,FALSE,TRUE,TRUE,149,50.336585,5.3669021
150,Eur HI,BEL,Belgium,STEENOKKERZEEL,25.38924847,2013,"1 station, background, suburban",measured data,17.0204178322171,2013,-,converted from PM10, >75%, NA,"European Environment Agency, Air quality e-reporting database",BE,FALSE,FALSE,TRUE,FALSE,150,50.9106802,4.5138289
151,Eur HI,BEL,Belgium,TOURNAI,21.10159385,2013,"1 station, background, rural",measured data,14.35746129,2013,"1 station, background, rural",measured data, >75%, >75%,"European Environment Agency, Air quality e-reporting database",BE,FALSE,FALSE,TRUE,TRUE,151,50.60566,3.3878259
152,Eur HI,BEL,Belgium,VEURNE,23.50396669,2013,"1 station, background, rural",measured data,15.63345225,2013,"1 station, background, rural",measured data, >75%, >75%,"European Environment Agency, Air quality e-reporting database",BE,FALSE,FALSE,TRUE,TRUE,152,51.071043,2.6548858
153,Eur HI,BEL,Belgium,VIELSALM,13.49721628,2013,"1 station, background, rural",measured data,9.10207901,2013,"1 station, background, rural",measured data, >75%, >75%,"European Environment Agency, Air quality e-reporting database",BE,FALSE,FALSE,TRUE,TRUE,153,50.2883685,5.9170187
154,Eur HI,BEL,Belgium,VILVOORDE,27.16273242,2013,"1 station, traffic, suburban",measured data,18.2093241475575,2013,-,converted from PM10, >75%, NA,"European Environment Agency, Air quality e-reporting database",BE,FALSE,FALSE,TRUE,FALSE,154,50.9280713,4.432404
155,Eur HI,BEL,Belgium,VIROINVAL,14.79679771,2013,"1 station, background, rural",measured data,10.14323011,2013,"1 station, background, rural",measured data, >75%, >75%,"European Environment Agency, Air quality e-reporting database",BE,FALSE,FALSE,TRUE,TRUE,155,50.0516361,4.6270287
156,Eur HI,BEL,Belgium,ZELZATE,30.19874732,2013,"1 station, industrial, suburban",measured data,20.2446046405542,2013,-,converted from PM10, >75%, NA,"European Environment Agency, Air quality e-reporting database",BE,FALSE,FALSE,TRUE,FALSE,156,51.2000036,3.8105002
157,Eur HI,BEL,Belgium,ZWEVEGEM,26.74539807,2013,"1 station, background, suburban",measured data,17.9295519825354,2013,-,converted from PM10, >75%, NA,"European Environment Agency, Air quality e-reporting database",BE,FALSE,FALSE,TRUE,FALSE,157,50.8040699,3.3419067
158,Eur HI,BEL,Belgium,ZWIJNDRECHT,29.24452835,2013,"1 station, industrial, suburban",measured data,19.6049163255567,2013,-,converted from PM10, >75%, NA,"European Environment Agency, Air quality e-reporting database",BE,FALSE,FALSE,TRUE,FALSE,158,51.2306209,4.3188693
159,Sear,BTN,Bhutan,Thimphu,77.75,2012,"4 stations, Mixed (residential, commercial or both), and Sensitive area (hospitals, schools, or sensitive ecosystem)",measured data,43.2438339037707,2012,-,converted from PM10, <75 % but annually representative, NA,"Brief report on air quality status over 2011-2012, Climate Change Division, National environment commission, 2017",BT,TRUE,FALSE,FALSE,FALSE,159,27.5626719,89.5724019
160,Amr LMI,BOL,"Bolivia, Plurinational States of",Cochabamba,59.52,2014,"3 stations, Urban",measured data,32.2265876603858,2014,-,converted from PM10, NA, NA,"Contaminacion Atmosferica, Gestion 2014, RED MoniCA",BO,FALSE,FALSE,FALSE,FALSE,160,-17.3935418,-66.1570138
161,Amr LMI,BOL,"Bolivia, Plurinational States of",La Paz,82,2013,"1 station, Urban",measured data,44.3981886450208,2013,-,converted from PM10, NA, NA,Air Quality Standards for Particulate Matter (PM) at high altitude cities.,BO,FALSE,FALSE,FALSE,FALSE,161,-16.4956469,-68.1335419
162,Eur LMI,BIH,Bosnia and Herzegovina,SARAJEVO,49.609,2010,"1 station, background urban",measured data,30.250044308739,2010,-,converted from PM10, >75%, NA,"European Environment Agency, Air quality e-reporting database",BA,FALSE,FALSE,TRUE,FALSE,162,43.8519774,18.3866868
163,Eur LMI,BIH,Bosnia and Herzegovina,TUZLA,106.214763380422,2010,-,converted from PM2.5,64.7665,2010,"2 stations, traffic urban",measured data, NA, >75%,"European Environment Agency, Air quality e-reporting database",BA,FALSE,FALSE,FALSE,TRUE,163,44.5391105,18.675193
164,Amr LMI,BRA,Brazil,"Americana, REGIÃO METROPOLITANA DE CAMPINAS",36,2014,"1 station, NA",measured data,16.4875463211885,2014,-,converted from PM10, NA, NA,"Plataforma da Qualidade do Ar, Instituto de energie e meio ambiente",BR,FALSE,FALSE,FALSE,FALSE,164,-22.7391769,-47.3313863
165,Amr LMI,BRA,Brazil,"Araçatuba, INTERIOR DO ESTADO",34,2014,"1 station, NA",measured data,15.5715715255669,2014,-,converted from PM10, NA, NA,"Plataforma da Qualidade do Ar, Instituto de energie e meio ambiente",BR,FALSE,FALSE,FALSE,FALSE,165,-10,-55
166,Amr LMI,BRA,Brazil,"Araraquara, INTERIOR DO ESTADO",34,2014,"1 station, NA",measured data,15.5715715255669,2014,-,converted from PM10, NA, NA,"Plataforma da Qualidade do Ar, Instituto de energie e meio ambiente",BR,FALSE,FALSE,FALSE,FALSE,166,-10,-55
167,Amr LMI,BRA,Brazil,Araucária,31.2566666666667,2012,"3 stations, commercial and industrial",measured data,14.3151594309059,2012,-,converted from PM10, >75%, NA,"Relatório annual da qualidade do ar na região metropolitana de curitiba, Ano de 2012",BR,FALSE,FALSE,TRUE,FALSE,167,-25.5861106,-49.4051208
168,Amr LMI,BRA,Brazil,"Barra Mansa, REGIÃO DO MÉDIO PARAÍBA",27.5,2014,"2 stations, NA",measured data,12.5946534397967,2014,-,converted from PM10, NA, NA,"Plataforma da Qualidade do Ar, Instituto de energie e meio ambiente",BR,FALSE,FALSE,FALSE,FALSE,168,-7.115,-34.86306
169,Amr LMI,BRA,Brazil,"Bauru, INTERIOR DO ESTADO",29,2014,"1 station, NA",measured data,13.2816345365129,2014,-,converted from PM10, NA, NA,"Plataforma da Qualidade do Ar, Instituto de energie e meio ambiente",BR,FALSE,FALSE,FALSE,FALSE,169,-10,-55
170,Amr LMI,BRA,Brazil,"Campinas, REGIÃO METROPOLITANA DE CAMPINAS",35,2014,"1 station, NA",measured data,16.0295589233777,2014,-,converted from PM10, NA, NA,"Plataforma da Qualidade do Ar, Instituto de energie e meio ambiente",BR,FALSE,FALSE,FALSE,FALSE,170,-22.9055599,-47.0608299
171,Amr LMI,BRA,Brazil,"Campos, REGIÃO DO NORTE FLUMINENSE",26.2015943175746,2014,-,converted from PM2.5,12,2014,"1 station, NA",measured data, NA, NA,"Plataforma da Qualidade do Ar, Instituto de energie e meio ambiente",BR,FALSE,FALSE,FALSE,FALSE,171,-21.7622988,-41.2907915
172,Amr LMI,BRA,Brazil,"Canoas, REGIÃO METROPOLITANA DE PORTO ALEGRE",29,2014,"1 station, NA",measured data,13.2816345365129,2014,-,converted from PM10, NA, NA,"Plataforma da Qualidade do Ar, Instituto de energie e meio ambiente",BR,FALSE,FALSE,FALSE,FALSE,172,-29.9216044,-51.1799524
173,Amr LMI,BRA,Brazil,"Cantagalo - Euclidelândia, REGIÃO SUL",20,2014,"1 station, NA",measured data,9.15974795621581,2014,-,converted from PM10, NA, NA,"Plataforma da Qualidade do Ar, Instituto de energie e meio ambiente",BR,FALSE,FALSE,FALSE,FALSE,173,-26,-52
174,Amr LMI,BRA,Brazil,"Catanduva, INTERIOR DO ESTADO",41,2014,"1 station, NA",measured data,18.7774833102424,2014,-,converted from PM10, NA, NA,"Plataforma da Qualidade do Ar, Instituto de energie e meio ambiente",BR,FALSE,FALSE,FALSE,FALSE,174,-10,-55
175,Amr LMI,BRA,Brazil,"Charqueadas, REGIÃO METROPOLITANA DE PORTO ALEGRE",29,2014,"1 station, NA",measured data,13.2816345365129,2014,-,converted from PM10, NA, NA,"Plataforma da Qualidade do Ar, Instituto de energie e meio ambiente",BR,FALSE,FALSE,FALSE,FALSE,175,-29.9550119,-51.6249194
176,Amr LMI,BRA,Brazil,Colombo,39.29,2012,"1 station, commercial and industrial",measured data,17.994324859986,2012,-,converted from PM10, <75 % but annually representative, NA,"Relatório annual da qualidade do ar na região metropolitana de curitiba, Ano de 2012",BR,TRUE,FALSE,FALSE,FALSE,176,-25.2925438,-49.2243471
177,Amr LMI,BRA,Brazil,"Cordeirópolis – Módolo, INTERIOR DO ESTADO",38,2014,"1 station, NA",measured data,17.40352111681,2014,-,converted from PM10, NA, NA,"Plataforma da Qualidade do Ar, Instituto de energie e meio ambiente",BR,FALSE,FALSE,FALSE,FALSE,177,-10,-55
178,Amr LMI,BRA,Brazil,"Cubatão, REGIÃO METROPOLITANA DA BAIXADA SANTISTA",68.6666666666667,2014,"3 stations, NA",measured data,31.4484679830076,2014,-,converted from PM10, NA, NA,"Plataforma da Qualidade do Ar, Instituto de energie e meio ambiente",BR,FALSE,FALSE,FALSE,FALSE,178,-23.8857981,-46.4241868
179,Amr LMI,BRA,Brazil,Curitiba,24.28,2012,"3 stations, residential (Bairro), commercial, industrial",measured data,11.119934018846,2012,-,converted from PM10, >75%, NA,"Relatório annual da qualidade do ar na região metropolitana de curitiba, Ano de 2012",BR,FALSE,FALSE,TRUE,FALSE,179,-25.4295696,-49.2712361
180,Amr LMI,BRA,Brazil,"Gravataí, REGIÃO METROPOLITANA DE PORTO ALEGRE",16,2014,"1 station, NA",measured data,7.32779836497265,2014,-,converted from PM10, NA, NA,"Plataforma da Qualidade do Ar, Instituto de energie e meio ambiente",BR,FALSE,FALSE,FALSE,FALSE,180,-29.9440221,-50.9930937
181,Amr LMI,BRA,Brazil,"Itaboraí , REGIÃO METROPOLITANA DO RIO DE JANEIRO",46,2014,"2 stations, NA",measured data,18,2014,"1 station, NA",measured data, NA, NA,"Plataforma da Qualidade do Ar, Instituto de energie e meio ambiente",BR,FALSE,FALSE,FALSE,FALSE,181,-22.749623,-42.8557427
182,Amr LMI,BRA,Brazil,"Itaguaí, REGIÃO METROPOLITANA DO RIO DE JANEIRO",30.5,2014,"2 stations, NA",measured data,13.9686156332291,2014,-,converted from PM10, NA, NA,"Plataforma da Qualidade do Ar, Instituto de energie e meio ambiente",BR,FALSE,FALSE,FALSE,FALSE,182,-22.8629596,-43.7753219
183,Amr LMI,BRA,Brazil,"Jaboticabal, INTERIOR DO ESTADO",38,2014,"1 station, NA",measured data,17.40352111681,2014,-,converted from PM10, NA, NA,"Plataforma da Qualidade do Ar, Instituto de energie e meio ambiente",BR,FALSE,FALSE,FALSE,FALSE,183,-10,-55
184,Amr LMI,BRA,Brazil,"Jacarei, REGIÃO METROPOLITANA DO VALE DO PARAÍBA E LITORAL NORTE",25,2014,"1 station, NA",measured data,11.4496849452698,2014,-,converted from PM10, NA, NA,"Plataforma da Qualidade do Ar, Instituto de energie e meio ambiente",BR,FALSE,FALSE,FALSE,FALSE,184,-23.3052799,-45.9658299
185,Amr LMI,BRA,Brazil,"Japeri, REGIÃO METROPOLITANA DO RIO DE JANEIRO",33,2014,"1 station, NA",measured data,15.1135841277561,2014,-,converted from PM10, NA, NA,"Plataforma da Qualidade do Ar, Instituto de energie e meio ambiente",BR,FALSE,FALSE,FALSE,FALSE,185,-22.6427641,-43.653383
186,Amr LMI,BRA,Brazil,"Jaú, INTERIOR DO ESTADO",25,2014,"1 station, NA",measured data,11.4496849452698,2014,-,converted from PM10, NA, NA,"Plataforma da Qualidade do Ar, Instituto de energie e meio ambiente",BR,FALSE,FALSE,FALSE,FALSE,186,-10,-55
187,Amr LMI,BRA,Brazil,"Jundiaí, INTERIOR DO ESTADO",30,2014,"1 station, NA",measured data,13.7396219343237,2014,-,converted from PM10, NA, NA,"Plataforma da Qualidade do Ar, Instituto de energie e meio ambiente",BR,FALSE,FALSE,FALSE,FALSE,187,-10,-55
188,Amr LMI,BRA,Brazil,"Limeira – Boa Vista, INTERIOR DO ESTADO",41,2014,"1 station, NA",measured data,18.7774833102424,2014,-,converted from PM10, NA, NA,"Plataforma da Qualidade do Ar, Instituto de energie e meio ambiente",BR,FALSE,FALSE,FALSE,FALSE,188,-10,-55
189,Amr LMI,BRA,Brazil,"Madre de Deus, REGIÃO METROPOLITANA DE SALVADOR",12,2014,"1 station, NA",measured data,5.49584877372949,2014,-,converted from PM10, NA, NA,"Plataforma da Qualidade do Ar, Instituto de energie e meio ambiente",BR,FALSE,FALSE,FALSE,FALSE,189,-12.742474,-38.6152912
190,Amr LMI,BRA,Brazil,"Malembá, REGIÃO METROPOLITANA DE SALVADOR",18,2014,"1 station, NA",measured data,8.24377316059423,2014,-,converted from PM10, NA, NA,"Plataforma da Qualidade do Ar, Instituto de energie e meio ambiente",BR,FALSE,FALSE,FALSE,FALSE,190,-12.97111,-38.51083
191,Amr LMI,BRA,Brazil,"Marília, INTERIOR DO ESTADO",22,2014,"1 station, NA",measured data,10.0757227518374,2014,-,converted from PM10, NA, NA,"Plataforma da Qualidade do Ar, Instituto de energie e meio ambiente",BR,FALSE,FALSE,FALSE,FALSE,191,-10,-55
192,Amr LMI,BRA,Brazil,"Paulínia, REGIÃO METROPOLITANA DE CAMPINAS",39.5,2014,"2 stations, NA",measured data,18.0905022135262,2014,-,converted from PM10, NA, NA,"Plataforma da Qualidade do Ar, Instituto de energie e meio ambiente",BR,FALSE,FALSE,FALSE,FALSE,192,-22.763039,-47.1532212
193,Amr LMI,BRA,Brazil,"Piracicaba, INTERIOR DO ESTADO",38,2014,"1 station, NA",measured data,15,2014,"1 station, NA",measured data, NA, NA,"Plataforma da Qualidade do Ar, Instituto de energie e meio ambiente",BR,FALSE,FALSE,FALSE,FALSE,193,-10,-55
194,Amr LMI,BRA,Brazil,"Porto Real, REGIÃO DO MÉDIO PARAÍBA",17,2014,"1 station, NA",measured data,7.78578576278344,2014,-,converted from PM10, NA, NA,"Plataforma da Qualidade do Ar, Instituto de energie e meio ambiente",BR,FALSE,FALSE,FALSE,FALSE,194,-7.115,-34.86306
195,Amr LMI,BRA,Brazil,"Presidente Prudente, INTERIOR DO ESTADO",21,2014,"1 station, NA",measured data,9.6177353540266,2014,-,converted from PM10, NA, NA,"Plataforma da Qualidade do Ar, Instituto de energie e meio ambiente",BR,FALSE,FALSE,FALSE,FALSE,195,-10,-55
196,Amr LMI,BRA,Brazil,"Quatis, REGIÃO DO MÉDIO PARAÍBA",27,2014,"1 station, NA",measured data,12.3656597408913,2014,-,converted from PM10, NA, NA,"Plataforma da Qualidade do Ar, Instituto de energie e meio ambiente",BR,FALSE,FALSE,FALSE,FALSE,196,-7.115,-34.86306
197,Amr LMI,BRA,Brazil,REGIÃO METROPOLITANA DE SÃO PAULO,35.3333333333333,2014,"24 stations, NA",measured data,18.625,2014,"8 stations, NA",measured data, NA, NA,"Plataforma da Qualidade do Ar, Instituto de energie e meio ambiente",BR,FALSE,FALSE,FALSE,FALSE,197,-23.5936262,-46.7423521
198,Amr LMI,BRA,Brazil,REGIÃO METROPOLITANA DO RIO DE JANEIRO,48.7692307692308,2014,"26 stations, NA",measured data,15.8823529411765,2014,"17 stations, NA",measured data, NA, NA,"Plataforma da Qualidade do Ar, Instituto de energie e meio ambiente",BR,FALSE,FALSE,FALSE,FALSE,198,-22.8963942,-43.3083894
199,Amr LMI,BRA,Brazil,"Resende, REGIÃO DO MÉDIO PARAÍBA",29,2014,"1 station, NA",measured data,13,2014,"1 station, NA",measured data, NA, NA,"Plataforma da Qualidade do Ar, Instituto de energie e meio ambiente",BR,FALSE,FALSE,FALSE,FALSE,199,-7.115,-34.86306
200,Amr LMI,BRA,Brazil,"Rio Claro, INTERIOR DO ESTADO",56,2014,"1 station, NA",measured data,25.6472942774043,2014,-,converted from PM10, NA, NA,"Plataforma da Qualidade do Ar, Instituto de energie e meio ambiente",BR,FALSE,FALSE,FALSE,FALSE,200,-10,-55
201,Amr LMI,BRA,Brazil,"Santa Gertrudes – Jd. Luciana, INTERIOR DO ESTADO",95,2014,"1 station, NA",measured data,43.5088027920251,2014,-,converted from PM10, NA, NA,"Plataforma da Qualidade do Ar, Instituto de energie e meio ambiente",BR,FALSE,FALSE,FALSE,FALSE,201,-10,-55
202,Amr LMI,BRA,Brazil,"Santos, REGIÃO METROPOLITANA DA BAIXADA SANTISTA",39,2014,"2 stations, NA",measured data,18,2014,"1 station, NA",measured data, NA, NA,"Plataforma da Qualidade do Ar, Instituto de energie e meio ambiente",BR,FALSE,FALSE,FALSE,FALSE,202,-23.9608329,-46.3338889
203,Amr LMI,BRA,Brazil,"São José do Rio Preto, INTERIOR DO ESTADO",39,2014,"1 station, NA",measured data,16,2014,"1 station, NA",measured data, NA, NA,"Plataforma da Qualidade do Ar, Instituto de energie e meio ambiente",BR,FALSE,FALSE,FALSE,FALSE,203,-10,-55
204,Amr LMI,BRA,Brazil,"São José dos Campos, REGIÃO METROPOLITANA DO VALE DO PARAÍBA E LITORAL NORTE",30,2014,"1 station, NA",measured data,13.7396219343237,2014,-,converted from PM10, NA, NA,"Plataforma da Qualidade do Ar, Instituto de energie e meio ambiente",BR,FALSE,FALSE,FALSE,FALSE,204,-23.1806358,-45.8906616
205,Amr LMI,BRA,Brazil,"Seropédica, REGIÃO METROPOLITANA DO RIO DE JANEIRO",31,2014,"1 station, NA",measured data,15,2014,"1 station, NA",measured data, NA, NA,"Plataforma da Qualidade do Ar, Instituto de energie e meio ambiente",BR,FALSE,FALSE,FALSE,FALSE,205,-22.7439579,-43.6990066
206,Amr LMI,BRA,Brazil,"Sorocaba, REGIÃO METROPOLITANA DE SOROCABA",39,2014,"1 station, NA",measured data,17.8615085146208,2014,-,converted from PM10, NA, NA,"Plataforma da Qualidade do Ar, Instituto de energie e meio ambiente",BR,FALSE,FALSE,FALSE,FALSE,206,-23.50167,-47.45806
207,Amr LMI,BRA,Brazil,"Tatuí, REGIÃO METROPOLITANA DE SOROCABA",24,2014,"1 station, NA",measured data,10.991697547459,2014,-,converted from PM10, NA, NA,"Plataforma da Qualidade do Ar, Instituto de energie e meio ambiente",BR,FALSE,FALSE,FALSE,FALSE,207,-23.50167,-47.45806
208,Amr LMI,BRA,Brazil,"Volta Redonda, REGIÃO DO MÉDIO PARAÍBA",33,2014,"8 stations, background, suburban",measured data,14,2014,"1 station, background, suburban",measured data, NA, NA,"Plataforma da Qualidade do Ar, Instituto de energie e meio ambiente",BR,FALSE,FALSE,FALSE,FALSE,208,-7.115,-34.86306
209,Eur LMI,BGR,Bulgaria,BLAGOEVGRAD,38.66682584,2013,"1 station, industrial, suburban",measured data,27.6103722358238,2013,-,converted from PM10, >75%, NA,"European Environment Agency, Air quality e-reporting database",BG,FALSE,FALSE,TRUE,FALSE,209,42.0111077,23.0906457
210,Eur LMI,BGR,Bulgaria,Burgas,35.73641383,2013,"3 stations, backgroundm, urban/suburban; industrial, suburban",measured data,25.5178868910162,2013,-,converted from PM10, >75%, NA,"European Environment Agency, Air quality e-reporting database",BG,FALSE,FALSE,TRUE,FALSE,210,42.4942274,27.4550161
211,Eur LMI,BGR,Bulgaria,Devnia,27.15225895,2013,"1 station, industrial, suburban",measured data,19.3882988936073,2013,-,converted from PM10, >75%, NA,"European Environment Agency, Air quality e-reporting database",BG,FALSE,FALSE,TRUE,FALSE,211,43.205043,27.6150867
212,Eur LMI,BGR,Bulgaria,Dimitrovgad,59.1522063,2013,"1 station, background, suburban",measured data,42.2381304654109,2013,-,converted from PM10, >75%, NA,"European Environment Agency, Air quality e-reporting database",BG,FALSE,FALSE,TRUE,FALSE,212,42.66667,25.25
213,Eur LMI,BGR,Bulgaria,Dolny Voden,53.68421052,2013,"1 station, industrial, urban",measured data,38.3336620848298,2013,-,converted from PM10, >75%, NA,"European Environment Agency, Air quality e-reporting database",BG,FALSE,FALSE,TRUE,FALSE,213,43.68333,26.68333
214,Eur LMI,BGR,Bulgaria,Galabovo,35.59972602,2013,"1 station, background, urban",measured data,25.4202838105405,2013,-,converted from PM10, >75%, NA,"European Environment Agency, Air quality e-reporting database",BG,FALSE,FALSE,TRUE,FALSE,214,42.1390164,25.867346
215,Eur LMI,BGR,Bulgaria,GORNA ORIAHOVICA,43.12816438,2013,"1 station, background, urban",measured data,30.7960285467176,2013,-,converted from PM10, >75%, NA,"European Environment Agency, Air quality e-reporting database",BG,FALSE,FALSE,TRUE,FALSE,215,43.12778,25.70167
216,Eur LMI,BGR,Bulgaria,HASKOVO,46.19222551,2013,"1 station, background, urban",measured data,32.9839471698465,2013,-,converted from PM10, >75%, NA,"European Environment Agency, Air quality e-reporting database",BG,FALSE,FALSE,TRUE,FALSE,216,41.9345727,25.5556639
217,Eur LMI,BGR,Bulgaria,Kardjaly,39.7567919,2013,"1 station, background, urban",measured data,28.3886716691815,2013,-,converted from PM10, >75%, NA,"European Environment Agency, Air quality e-reporting database",BG,FALSE,FALSE,TRUE,FALSE,217,42.66667,25.25
218,Eur LMI,BGR,Bulgaria,LOVECH,38.90894736,2013,"1 station, background, urban",measured data,27.7832611437772,2013,-,converted from PM10, >75%, NA,"European Environment Agency, Air quality e-reporting database",BG,FALSE,FALSE,TRUE,FALSE,218,43.1349971,24.715431
219,Eur LMI,BGR,Bulgaria,MONTANA,52.46147308,2013,"1 station, background, urban",measured data,37.4605561307809,2013,-,converted from PM10, >75%, NA,"European Environment Agency, Air quality e-reporting database",BG,FALSE,FALSE,TRUE,FALSE,219,43.4088984,23.2203193
220,Eur LMI,BGR,Bulgaria,Pazarjik,45.81488764,2013,"1 station, background, suburban",measured data,32.7145058898075,2013,-,converted from PM10, >75%, NA,"European Environment Agency, Air quality e-reporting database",BG,FALSE,FALSE,TRUE,FALSE,220,42.66667,25.25
221,Eur LMI,BGR,Bulgaria,Pernik,46.708228265,2013,"2 stations, background, suburban",measured data,31.26187845,2013,"1 station, background, suburban",measured data, >75%, >75%,"European Environment Agency, Air quality e-reporting database",BG,FALSE,FALSE,TRUE,TRUE,221,42.6083042,23.0421163
222,Eur LMI,BGR,Bulgaria,Pirdop,35.87238372,2013,"1 station, background, urban",measured data,25.6149773346771,2013,-,converted from PM10, >75%, NA,"European Environment Agency, Air quality e-reporting database",BG,FALSE,FALSE,TRUE,FALSE,222,42.7006838,24.1803328
223,Eur LMI,BGR,Bulgaria,Pleven,41.66486206,2013,"1 station, traffic, urban",measured data,29.7511452166008,2013,-,converted from PM10, >75%, NA,"European Environment Agency, Air quality e-reporting database",BG,FALSE,FALSE,TRUE,FALSE,223,43.4088034,24.6181
224,Eur LMI,BGR,Bulgaria,Plovdiv,59.06525674,2013,"2 stations, background, urban",measured data,34.40207612,2013,"1 station, background, urban",measured data, >75%, >75%,"European Environment Agency, Air quality e-reporting database",BG,FALSE,FALSE,TRUE,TRUE,224,42.1419118,24.7498385
225,Eur LMI,BGR,Bulgaria,Ruse,46.90315068,2013,"1 station, background, urban",measured data,33.4915892674094,2013,-,converted from PM10, >75%, NA,"European Environment Agency, Air quality e-reporting database",BG,FALSE,FALSE,TRUE,FALSE,225,43.8480413,25.9542057
226,Eur LMI,BGR,Bulgaria,Shumen,38.0927826,2013,"1 station, background, urban",measured data,27.2004718317554,2013,-,converted from PM10, >75%, NA,"European Environment Agency, Air quality e-reporting database",BG,FALSE,FALSE,TRUE,FALSE,226,43.2712716,26.9360254
227,Eur LMI,BGR,Bulgaria,SLIVEN,39.4269146,2013,"1 station, traffic, urban",measured data,28.1531200083641,2013,-,converted from PM10, >75%, NA,"European Environment Agency, Air quality e-reporting database",BG,FALSE,FALSE,TRUE,FALSE,227,42.6823429,26.3208862
228,Eur LMI,BGR,Bulgaria,Smolian,43.13951566,2013,"1 station, traffic, urban",measured data,30.8041340236825,2013,-,converted from PM10, >75%, NA,"European Environment Agency, Air quality e-reporting database",BG,FALSE,FALSE,TRUE,FALSE,228,41.5769241,24.7008822
229,Eur LMI,BGR,Bulgaria,Sofia,43.3872448283333,2013,"6 stations, background, suburban",measured data,21.8637792,2013,"1 station, background, suburban",measured data, >75%, NA,"European Environment Agency, Air quality e-reporting database",BG,FALSE,FALSE,TRUE,FALSE,229,42.6977211,23.3225964
230,Eur LMI,BGR,Bulgaria,Stara Zagora,41.88771604,2013,"1 station, background, urban",measured data,13.19619178,2013,"1 station, background, urban",measured data, >75%, >75%,"European Environment Agency, Air quality e-reporting database",BG,FALSE,FALSE,TRUE,TRUE,230,42.4607734,25.5615093
231,Eur LMI,BGR,Bulgaria,Varna,51.04669421,2013,"1 station, background, urban",measured data,36.4503213782901,2013,-,converted from PM10, >75%, NA,"European Environment Agency, Air quality e-reporting database",BG,FALSE,FALSE,TRUE,FALSE,231,43.2166104,27.9017131
232,Eur LMI,BGR,Bulgaria,Veliko Tarnovo,40.07241379,2013,"1 station, background, suburban",measured data,25.84707602,2013,"1 station, background, suburban",measured data, >75%, >75%,"European Environment Agency, Air quality e-reporting database",BG,FALSE,FALSE,TRUE,TRUE,232,43.0820584,25.6321312
233,Eur LMI,BGR,Bulgaria,Vratza,38.87390581,2013,"1 station, traffic, urban",measured data,27.7582394302488,2013,-,converted from PM10, >75%, NA,"European Environment Agency, Air quality e-reporting database",BG,FALSE,FALSE,TRUE,FALSE,233,43.21,23.5625
234,Afr,CMR,Cameroon,Bafoussam,105,2012,"1 station, commercial/residential",measured data,67,2012,"1 station, commercial/residential",measured data, <75%, <75%,"J. Antonel, Z. Chowdhury (2014), Atmospheric Environement 95, 344-354",CM,FALSE,FALSE,FALSE,FALSE,234,5.4758083,10.4215565
235,Afr,CMR,Cameroon,Bamenda,141,2012,"1 station, residential/commercial",measured data,132,2012,"1 station, residential/commercial",measured data, <75%, <75%,"J. Antonel, Z. Chowdhury (2014), Atmospheric Environement 95, 344-354",CM,FALSE,FALSE,FALSE,FALSE,235,5.9614117,10.1516505
236,Afr,CMR,Cameroon,Yaoudé,65,2012,"1 station, commercial/residential",measured data,49,2012,"1 station, commercial/residential",measured data, <75%, <75%,"J. Antonel, Z. Chowdhury (2014), Atmospheric Environement 95, 344-354",CM,FALSE,FALSE,FALSE,FALSE,236,6,12.5
237,Amr HI,CAN,Canada,ABBOTSFORD,12,2013,"2 stations, NA",measured data,7,2013,"2 stations, NA",measured data, <75 % but annually representative, >75%,National Air Pollution Surveillance Network.,CA,TRUE,FALSE,FALSE,TRUE,237,49.0522222,-122.3291669
238,Amr HI,CAN,Canada,AUCLAIR,5.2526071914063,2013,-,converted from PM2.5,3,2013,"1 station, NA",measured data, NA, >75%,National Air Pollution Surveillance Network.,CA,FALSE,FALSE,FALSE,TRUE,238,47.7286457,-68.644478
239,Amr HI,CAN,Canada,AYLESFORD,8.75434531901051,2013,-,converted from PM2.5,5,2013,"1 station, NA",measured data, NA, >75%,National Air Pollution Surveillance Network.,CA,FALSE,FALSE,FALSE,TRUE,239,45.028162,-64.8364287
240,Amr HI,CAN,Canada,BARRIE,12.2560834466147,2013,-,converted from PM2.5,7,2013,"1 station, NA",measured data, NA, >75%,National Air Pollution Surveillance Network.,CA,FALSE,FALSE,FALSE,TRUE,240,44.3787033,-79.7030515
241,Amr HI,CAN,Canada,BATHURST,12.2560834466147,2013,-,converted from PM2.5,7,2013,"1 station, NA",measured data, NA, >75%,National Air Pollution Surveillance Network.,CA,FALSE,FALSE,FALSE,TRUE,241,47.625811,-65.6525134
242,Amr HI,CAN,Canada,BEAVERLODGE,14.0069525104168,2013,-,converted from PM2.5,8,2013,"1 station, NA",measured data, NA, >75%,National Air Pollution Surveillance Network.,CA,FALSE,FALSE,FALSE,TRUE,242,55.2056198,-119.430745
243,Amr HI,CAN,Canada,BELLEVILLE,12.2560834466147,2013,-,converted from PM2.5,7,2013,"1 station, NA",measured data, NA, >75%,National Air Pollution Surveillance Network.,CA,FALSE,FALSE,FALSE,TRUE,243,44.1618763,-77.3868021
244,Amr HI,CAN,Canada,BRAMPTON,14.0069525104168,2013,-,converted from PM2.5,8,2013,"1 station, NA",measured data, NA, >75%,National Air Pollution Surveillance Network.,CA,FALSE,FALSE,FALSE,TRUE,244,43.714575,-79.7523866
245,Amr HI,CAN,Canada,BRANDON,14,2013,"1 station, NA",measured data,6,2013,"1 station, NA",measured data, >75%, >75%,National Air Pollution Surveillance Network.,CA,FALSE,FALSE,TRUE,TRUE,245,49.8493165,-99.9573543
246,Amr HI,CAN,Canada,BRANTFORD,14.0069525104168,2013,-,converted from PM2.5,8,2013,"1 station, NA",measured data, NA, >75%,National Air Pollution Surveillance Network.,CA,FALSE,FALSE,FALSE,TRUE,246,43.1394204,-80.2635892
247,Amr HI,CAN,Canada,BRUDERHEIM,17,2013,"1 station, NA",measured data,9.70946391792636,2013,-,converted from PM10, >75%, NA,National Air Pollution Surveillance Network.,CA,FALSE,FALSE,TRUE,FALSE,247,53.804016,-112.9273856
248,Amr HI,CAN,Canada,BURLINGTON,15.7578215742189,2013,-,converted from PM2.5,9,2013,"1 station, NA",measured data, NA, >75%,National Air Pollution Surveillance Network.,CA,FALSE,FALSE,FALSE,TRUE,248,43.3235642,-79.8011552
249,Amr HI,CAN,Canada,BURNABY,10,2013,"1 station, NA",measured data,6,2013,"1 station, NA",measured data, >75%, >75%,National Air Pollution Surveillance Network.,CA,FALSE,FALSE,TRUE,TRUE,249,49.2432773,-122.9725931
250,Amr HI,CAN,Canada,CALGARY,10.742614776,2013,"1 station, NA",measured data,8.5,2013,"2 stations, NA",measured data, <75 % but annually representative, >75%,National Air Pollution Surveillance Network.,CA,TRUE,FALSE,FALSE,TRUE,250,51.0530588,-114.0625613
251,Amr HI,CAN,Canada,CAROLINE,7.0034762552084,2013,-,converted from PM2.5,4,2013,"1 station, NA",measured data, NA, >75%,National Air Pollution Surveillance Network.,CA,FALSE,FALSE,FALSE,TRUE,251,52.0918456,-114.7417789
252,Amr HI,CAN,Canada,CASTLEGAR,13,2013,"1 station, NA",measured data,7.42488417253192,2013,-,converted from PM10, >75%, NA,National Air Pollution Surveillance Network.,CA,FALSE,FALSE,TRUE,FALSE,252,49.3159527,-117.6608283
253,Amr HI,CAN,Canada,CHARETTE,14.0069525104168,2013,-,converted from PM2.5,8,2013,"1 station, NA",measured data, NA, >75%,National Air Pollution Surveillance Network.,CA,FALSE,FALSE,FALSE,TRUE,253,46.4406562,-72.9239374
254,Amr HI,CAN,Canada,CHATHAM,14.0069525104168,2013,-,converted from PM2.5,8,2013,"1 station, NA",measured data, NA, >75%,National Air Pollution Surveillance Network.,CA,FALSE,FALSE,FALSE,TRUE,254,42.4049878,-82.190976
255,Amr HI,CAN,Canada,CHILLIWACK,12,2013,"1 station, NA",measured data,6,2013,"1 station, NA",measured data, >75%, >75%,National Air Pollution Surveillance Network.,CA,FALSE,FALSE,TRUE,TRUE,255,49.166667,-121.9499999
256,Amr HI,CAN,Canada,COLD LAKE,14.0069525104168,2013,-,converted from PM2.5,8,2013,"1 station, NA",measured data, NA, >75%,National Air Pollution Surveillance Network.,CA,FALSE,FALSE,FALSE,TRUE,256,54.4598843,-110.1927477
257,Amr HI,CAN,Canada,CORNER BROOK,10.5052143828126,2013,-,converted from PM2.5,6,2013,"1 station, NA",measured data, NA, >75%,National Air Pollution Surveillance Network.,CA,FALSE,FALSE,FALSE,TRUE,257,48.9523421,-57.9453387
258,Amr HI,CAN,Canada,CORNWALL,14.0069525104168,2013,-,converted from PM2.5,8,2013,"1 station, NA",measured data, NA, >75%,National Air Pollution Surveillance Network.,CA,FALSE,FALSE,FALSE,TRUE,258,45.0205301,-74.7308511
259,Amr HI,CAN,Canada,COURTENAY,29.7647740846357,2013,-,converted from PM2.5,17,2013,"1 station, NA",measured data, NA, >75%,National Air Pollution Surveillance Network.,CA,FALSE,FALSE,FALSE,TRUE,259,49.6894012,-124.9955321
260,Amr HI,CAN,Canada,DARTMOUTH,12.2560834466147,2013,-,converted from PM2.5,7,2013,"1 station, NA",measured data, NA, >75%,National Air Pollution Surveillance Network.,CA,FALSE,FALSE,FALSE,TRUE,260,44.6786384,-63.5722629
261,Amr HI,CAN,Canada,DELTA,10.5052143828126,2013,-,converted from PM2.5,6,2013,"2 stations, NA",measured data, NA, >75%,National Air Pollution Surveillance Network.,CA,FALSE,FALSE,FALSE,TRUE,261,49.0846823,-123.0579921
262,Amr HI,CAN,Canada,DESCHAMBAULT,12.2560834466147,2013,-,converted from PM2.5,7,2013,"1 station, NA",measured data, NA, >75%,National Air Pollution Surveillance Network.,CA,FALSE,FALSE,FALSE,TRUE,262,46.6491648,-71.9296282
263,Amr HI,CAN,Canada,DORSET,8.75434531901051,2013,-,converted from PM2.5,5,2013,"1 station, NA",measured data, NA, >75%,National Air Pollution Surveillance Network.,CA,FALSE,FALSE,FALSE,TRUE,263,45.2438734,-78.8935011
264,Amr HI,CAN,Canada,DUNCAN,15.7578215742189,2013,-,converted from PM2.5,9,2013,"1 station, NA",measured data, NA, >75%,National Air Pollution Surveillance Network.,CA,FALSE,FALSE,FALSE,TRUE,264,48.7786869,-123.7080393
265,Amr HI,CAN,Canada,EDMONTON,14.5,2013,"2 stations, NA",measured data,7.5,2013,"4 stations, NA",measured data, >75%, >75%,National Air Pollution Surveillance Network.,CA,FALSE,FALSE,TRUE,TRUE,265,53.5343609,-113.5065084
266,Amr HI,CAN,Canada,ELK ISLAND,8.75434531901051,2013,-,converted from PM2.5,5,2013,"1 station, NA",measured data, NA, >75%,National Air Pollution Surveillance Network.,CA,FALSE,FALSE,FALSE,TRUE,266,50.7473132,-96.5501001
267,Amr HI,CAN,Canada,FERME NEUVE,8.75434531901051,2013,-,converted from PM2.5,5,2013,"1 station, NA",measured data, NA, >75%,National Air Pollution Surveillance Network.,CA,FALSE,FALSE,FALSE,TRUE,267,46.7017198,-75.4503267
268,Amr HI,CAN,Canada,FLIN FLON,13,2013,"1 station, NA",measured data,5,2013,"1 station, NA",measured data, >75%, >75%,National Air Pollution Surveillance Network.,CA,FALSE,FALSE,TRUE,TRUE,268,54.7744035,-101.8824806
269,Amr HI,CAN,Canada,FORT MACKAY,10.5052143828126,2013,-,converted from PM2.5,6,2013,"2 stations, NA",measured data, NA, >75%,National Air Pollution Surveillance Network.,CA,FALSE,FALSE,FALSE,TRUE,269,57.1825744,-111.6378435
270,Amr HI,CAN,Canada,FORT MCMURRAY,11.3806489147137,2013,-,converted from PM2.5,6.5,2013,"2 stations, NA",measured data, NA, >75%,National Air Pollution Surveillance Network.,CA,FALSE,FALSE,FALSE,TRUE,270,56.7234442,-111.3743199
271,Amr HI,CAN,Canada,FORT SASKATCHEWAN,12.2560834466147,2013,-,converted from PM2.5,7,2013,"1 station, NA",measured data, NA, >75%,National Air Pollution Surveillance Network.,CA,FALSE,FALSE,FALSE,TRUE,271,53.7129361,-113.2135587
272,Amr HI,CAN,Canada,FORT ST. JOHN,18,2013,"1 station, NA",measured data,10.280608854275,2013,-,converted from PM10, >75%, NA,National Air Pollution Surveillance Network.,CA,FALSE,FALSE,TRUE,FALSE,272,56.250094,-120.8334656
273,Amr HI,CAN,Canada,FREDERICTON,7.0034762552084,2013,-,converted from PM2.5,4,2013,"1 station, NA",measured data, NA, >75%,National Air Pollution Surveillance Network.,CA,FALSE,FALSE,FALSE,TRUE,273,45.9646491,-66.6437528
274,Amr HI,CAN,Canada,GATINEAU,15.7578215742189,2013,-,converted from PM2.5,9,2013,"1 station, NA",measured data, NA, >75%,National Air Pollution Surveillance Network.,CA,FALSE,FALSE,FALSE,TRUE,274,45.4563052,-75.7228827
275,Amr HI,CAN,Canada,GRAND BEND,12.2560834466147,2013,-,converted from PM2.5,7,2013,"1 station, NA",measured data, NA, >75%,National Air Pollution Surveillance Network.,CA,FALSE,FALSE,FALSE,TRUE,275,43.3122745,-81.7567266
276,Amr HI,CAN,Canada,GRAND FALLS - WINDSOR,8.75434531901051,2013,-,converted from PM2.5,5,2013,"1 station, NA",measured data, NA, >75%,National Air Pollution Surveillance Network.,CA,FALSE,FALSE,FALSE,TRUE,276,48.9437512,-55.6520649
277,Amr HI,CAN,Canada,GRANDE PRAIRIE,10.5052143828126,2013,-,converted from PM2.5,6,2013,"1 station, NA",measured data, NA, >75%,National Air Pollution Surveillance Network.,CA,FALSE,FALSE,FALSE,TRUE,277,55.1706428,-118.7948029
278,Amr HI,CAN,Canada,GUELPH,14.0069525104168,2013,-,converted from PM2.5,8,2013,"1 station, NA",measured data, NA, >75%,National Air Pollution Surveillance Network.,CA,FALSE,FALSE,FALSE,TRUE,278,43.5461764,-80.247059
279,Amr HI,CAN,Canada,HALIFAX,11.74859944,2013,"1 station, NA",measured data,5,2013,"1 station, NA",measured data, <75%, >75%,National Air Pollution Surveillance Network.,CA,FALSE,FALSE,FALSE,TRUE,279,44.6484246,-63.5749723
280,Amr HI,CAN,Canada,HAMILTON,16,2013,"1 station, NA",measured data,9.5,2013,"2 stations, NA",measured data, NA, >75%,National Air Pollution Surveillance Network.,CA,FALSE,FALSE,FALSE,TRUE,280,43.254687,-79.8678196
281,Amr HI,CAN,Canada,HOPE,9,2013,"1 station, NA",measured data,5,2013,"1 station, NA",measured data, >75%, >75%,National Air Pollution Surveillance Network.,CA,FALSE,FALSE,TRUE,TRUE,281,49.383333,-121.4333329
282,Amr HI,CAN,Canada,HOUSTON,16,2013,"1 station, NA",measured data,9.13831898157775,2013,-,converted from PM10, >75%, NA,National Air Pollution Surveillance Network.,CA,FALSE,FALSE,TRUE,FALSE,282,54.3989879,-126.6518359
283,Amr HI,CAN,Canada,KAMLOOPS,15.7578215742189,2013,-,converted from PM2.5,9,2013,"1 station, NA",measured data, NA, >75%,National Air Pollution Surveillance Network.,CA,FALSE,FALSE,FALSE,TRUE,283,50.6765557,-120.3417341
284,Amr HI,CAN,Canada,KINGSTON,10.5052143828126,2013,-,converted from PM2.5,6,2013,"1 station, NA",measured data, NA, >75%,National Air Pollution Surveillance Network.,CA,FALSE,FALSE,FALSE,TRUE,284,44.2298484,-76.4802834
285,Amr HI,CAN,Canada,KITCHENER,14.8823870423179,2013,-,converted from PM2.5,8.5,2013,"2 stations, NA",measured data, NA, >75%,National Air Pollution Surveillance Network.,CA,FALSE,FALSE,FALSE,TRUE,285,43.4516552,-80.4924614
286,Amr HI,CAN,Canada,LA DORE,8.75434531901051,2013,-,converted from PM2.5,5,2013,"1 station, NA",measured data, NA, >75%,National Air Pollution Surveillance Network.,CA,FALSE,FALSE,FALSE,TRUE,286,48.7135577,-72.6494754
287,Amr HI,CAN,Canada,LA PATRIE,8.75434531901051,2013,-,converted from PM2.5,5,2013,"1 station, NA",measured data, NA, >75%,National Air Pollution Surveillance Network.,CA,FALSE,FALSE,FALSE,TRUE,287,45.4018607,-71.2496669
288,Amr HI,CAN,Canada,LA PECHE,8.75434531901051,2013,-,converted from PM2.5,5,2013,"1 station, NA",measured data, NA, >75%,National Air Pollution Surveillance Network.,CA,FALSE,FALSE,FALSE,TRUE,288,46.7030957,-72.8840479
289,Amr HI,CAN,Canada,LAC-EDOUARD,7.0034762552084,2013,-,converted from PM2.5,4,2013,"1 station, NA",measured data, NA, >75%,National Air Pollution Surveillance Network.,CA,FALSE,FALSE,FALSE,TRUE,289,47.6587709,-72.2731144
290,Amr HI,CAN,Canada,LAMONT,12.2560834466147,2013,-,converted from PM2.5,7,2013,"1 station, NA",measured data, NA, >75%,National Air Pollution Surveillance Network.,CA,FALSE,FALSE,FALSE,TRUE,290,53.760803,-112.7815589
291,Amr HI,CAN,Canada,LANGDALE,10,2013,"1 station, NA",measured data,5.71144936348609,2013,-,converted from PM10, >75%, NA,National Air Pollution Surveillance Network.,CA,FALSE,FALSE,TRUE,FALSE,291,49.4340961,-123.4743016
292,Amr HI,CAN,Canada,LANGLEY,11,2013,"1 station, NA",measured data,6.2825942998347,2013,-,converted from PM10, >75%, NA,National Air Pollution Surveillance Network.,CA,FALSE,FALSE,TRUE,FALSE,292,49.1204123,-122.6598956
293,Amr HI,CAN,Canada,LAVAL,15.7578215742189,2013,-,converted from PM2.5,9,2013,"1 station, NA",measured data, NA, >75%,National Air Pollution Surveillance Network.,CA,FALSE,FALSE,FALSE,TRUE,293,45.6055889,-73.7344969
294,Amr HI,CAN,Canada,LEMIEUX,17.508690638021,2013,-,converted from PM2.5,10,2013,"1 station, NA",measured data, NA, >75%,National Air Pollution Surveillance Network.,CA,FALSE,FALSE,FALSE,TRUE,294,59.916667,-133.1166669
295,Amr HI,CAN,Canada,LONDON,15.7578215742189,2013,-,converted from PM2.5,9,2013,"1 station, NA",measured data, NA, >75%,National Air Pollution Surveillance Network.,CA,FALSE,FALSE,FALSE,TRUE,295,42.988097,-81.2460294
296,Amr HI,CAN,Canada,LONGUEUIL,14.8823870423179,2013,-,converted from PM2.5,8.5,2013,"2 stations, NA",measured data, NA, >75%,National Air Pollution Surveillance Network.,CA,FALSE,FALSE,FALSE,TRUE,296,45.5455765,-73.4253037
297,Amr HI,CAN,Canada,MISSISSAUGA,14.0069525104168,2013,-,converted from PM2.5,8,2013,"1 station, NA",measured data, NA, >75%,National Air Pollution Surveillance Network.,CA,FALSE,FALSE,FALSE,TRUE,297,43.5892854,-79.6441645
298,Amr HI,CAN,Canada,MONCTON,10.5052143828126,2013,-,converted from PM2.5,6,2013,"1 station, NA",measured data, NA, >75%,National Air Pollution Surveillance Network.,CA,FALSE,FALSE,FALSE,TRUE,298,46.097331,-64.7989694
299,Amr HI,CAN,Canada,MONTREAL,15.6666666666667,2013,"3 stations, NA",measured data,10.1111111111111,2013,"9 stations, NA",measured data, NA, >75%,National Air Pollution Surveillance Network.,CA,FALSE,FALSE,FALSE,TRUE,299,45.5087928,-73.5539819
300,Amr HI,CAN,Canada,MORRISBURG,12.2560834466147,2013,-,converted from PM2.5,7,2013,"1 station, NA",measured data, NA, >75%,National Air Pollution Surveillance Network.,CA,FALSE,FALSE,FALSE,TRUE,300,44.8966448,-75.1829105
301,Amr HI,CAN,Canada,MOUNT PEARL,10.5052143828126,2013,-,converted from PM2.5,6,2013,"1 station, NA",measured data, NA, >75%,National Air Pollution Surveillance Network.,CA,FALSE,FALSE,FALSE,TRUE,301,47.5185206,-52.8061092
302,Amr HI,CAN,Canada,NANAIMO,10,2013,"1 station, NA",measured data,5.71144936348609,2013,-,converted from PM10, >75%, NA,National Air Pollution Surveillance Network.,CA,FALSE,FALSE,TRUE,FALSE,302,49.1637659,-123.9379792
303,Amr HI,CAN,Canada,NELSON,13,2013,"1 station, NA",measured data,7.42488417253192,2013,-,converted from PM10, >75%, NA,National Air Pollution Surveillance Network.,CA,FALSE,FALSE,TRUE,FALSE,303,49.494202,-117.287868
304,Amr HI,CAN,Canada,NEWMARKET,12.2560834466147,2013,-,converted from PM2.5,7,2013,"1 station, NA",measured data, NA, >75%,National Air Pollution Surveillance Network.,CA,FALSE,FALSE,FALSE,TRUE,304,44.0545216,-79.4595168
305,Amr HI,CAN,Canada,NORMAN WELLS,5.2526071914063,2013,-,converted from PM2.5,3,2013,"1 station, NA",measured data, NA, >75%,National Air Pollution Surveillance Network.,CA,FALSE,FALSE,FALSE,TRUE,305,65.282401,-126.8327252
306,Amr HI,CAN,Canada,NORTH BAY,8.75434531901051,2013,-,converted from PM2.5,5,2013,"1 station, NA",measured data, NA, >75%,National Air Pollution Surveillance Network.,CA,FALSE,FALSE,FALSE,TRUE,306,46.3200191,-79.4579426
307,Amr HI,CAN,Canada,NORTH VANCOUVER,9.62977985091156,2013,-,converted from PM2.5,5.5,2013,"2 stations, NA",measured data, NA, >75%,National Air Pollution Surveillance Network.,CA,FALSE,FALSE,FALSE,TRUE,307,49.3200369,-123.0723434
308,Amr HI,CAN,Canada,NOTRE-DAME-DU-ROSAIRE,8.75434531901051,2013,-,converted from PM2.5,5,2013,"1 station, NA",measured data, NA, >75%,National Air Pollution Surveillance Network.,CA,FALSE,FALSE,FALSE,TRUE,308,48.7906285,-71.4266316
309,Amr HI,CAN,Canada,OAKVILLE,14.0069525104168,2013,-,converted from PM2.5,8,2013,"1 station, NA",measured data, NA, >75%,National Air Pollution Surveillance Network.,CA,FALSE,FALSE,FALSE,TRUE,309,43.4474108,-79.6665484
310,Amr HI,CAN,Canada,OSHAWA,12.2560834466147,2013,-,converted from PM2.5,7,2013,"1 station, NA",measured data, NA, >75%,National Air Pollution Surveillance Network.,CA,FALSE,FALSE,FALSE,TRUE,310,43.9172764,-78.8614873
311,Amr HI,CAN,Canada,OTTAWA,11,2013,"1 station, NA",measured data,7,2013,"2 stations, NA",measured data, NA, >75%,National Air Pollution Surveillance Network.,CA,FALSE,FALSE,FALSE,TRUE,311,45.4210328,-75.6900218
312,Amr HI,CAN,Canada,PARRY SOUND,10.5052143828126,2013,-,converted from PM2.5,6,2013,"1 station, NA",measured data, NA, >75%,National Air Pollution Surveillance Network.,CA,FALSE,FALSE,FALSE,TRUE,312,45.3402359,-80.0370221
313,Amr HI,CAN,Canada,PETAWAWA,8.75434531901051,2013,-,converted from PM2.5,5,2013,"1 station, NA",measured data, NA, >75%,National Air Pollution Surveillance Network.,CA,FALSE,FALSE,FALSE,TRUE,313,45.8866349,-77.2654662
314,Amr HI,CAN,Canada,PETERBOROUGH,12.2560834466147,2013,-,converted from PM2.5,7,2013,"1 station, NA",measured data, NA, >75%,National Air Pollution Surveillance Network.,CA,FALSE,FALSE,FALSE,TRUE,314,44.2876446,-78.3272996
315,Amr HI,CAN,Canada,PICTOU,12.2560834466147,2013,-,converted from PM2.5,7,2013,"1 station, NA",measured data, NA, >75%,National Air Pollution Surveillance Network.,CA,FALSE,FALSE,FALSE,TRUE,315,45.6776403,-62.7106122
316,Amr HI,CAN,Canada,PORT ALBERNI,14.0069525104168,2013,-,converted from PM2.5,8,2013,"1 station, NA",measured data, NA, >75%,National Air Pollution Surveillance Network.,CA,FALSE,FALSE,FALSE,TRUE,316,49.2343521,-124.8055887
317,Amr HI,CAN,Canada,PORT HAWKESBURY,10.5052143828126,2013,-,converted from PM2.5,6,2013,"1 station, NA",measured data, NA, >75%,National Air Pollution Surveillance Network.,CA,FALSE,FALSE,FALSE,TRUE,317,45.6180851,-61.3574588
318,Amr HI,CAN,Canada,PORT MOODY,11,2013,"1 station, NA",measured data,6,2013,"1 station, NA",measured data, >75%, >75%,National Air Pollution Surveillance Network.,CA,FALSE,FALSE,TRUE,TRUE,318,49.2823679,-122.8298447
319,Amr HI,CAN,Canada,PORT STANLEY,12.2560834466147,2013,-,converted from PM2.5,7,2013,"1 station, NA",measured data, NA, >75%,National Air Pollution Surveillance Network.,CA,FALSE,FALSE,FALSE,TRUE,319,42.6686473,-81.2149499
320,Amr HI,CAN,Canada,POWELL RIVER,7,2013,"1 station, NA",measured data,3.99801455444026,2013,-,converted from PM10, >75%, NA,National Air Pollution Surveillance Network.,CA,FALSE,FALSE,TRUE,FALSE,320,49.8356621,-124.5244064
321,Amr HI,CAN,Canada,PRINCE GEORGE,15.3333333333333,2013,"3 stations, NA",measured data,8.75755569067868,2013,-,converted from PM10, >75%, NA,National Air Pollution Surveillance Network.,CA,FALSE,FALSE,TRUE,FALSE,321,53.9172526,-122.746134
322,Amr HI,CAN,Canada,QUEBEC,18,2013,"1 station, NA",measured data,9,2013,"2 stations, NA",measured data, NA, >75%,National Air Pollution Surveillance Network.,CA,FALSE,FALSE,FALSE,TRUE,322,54,-71.9999999
323,Amr HI,CAN,Canada,QUESNEL,15,2013,"3 stations, NA",measured data,8.56717404522914,2013,-,converted from PM10, >75%, NA,National Air Pollution Surveillance Network.,CA,FALSE,FALSE,TRUE,FALSE,323,52.9759902,-122.4940039
324,Amr HI,CAN,Canada,REGINA,25,2013,"1 station, NA",measured data,14.2786234087152,2013,-,converted from PM10, >75%, NA,National Air Pollution Surveillance Network.,CA,FALSE,FALSE,TRUE,FALSE,324,50.4480951,-104.615818
325,Amr HI,CAN,Canada,RICHMOND,12.2560834466147,2013,-,converted from PM2.5,7,2013,"1 station, NA",measured data, NA, >75%,National Air Pollution Surveillance Network.,CA,FALSE,FALSE,FALSE,TRUE,325,49.1632611,-123.1369142
326,Amr HI,CAN,Canada,ROUYN-NORANDA,12.2560834466147,2013,-,converted from PM2.5,7,2013,"1 station, NA",measured data, NA, >75%,National Air Pollution Surveillance Network.,CA,FALSE,FALSE,FALSE,TRUE,326,48.24174,-79.0200603
327,Amr HI,CAN,Canada,SAGUENAY,10.5052143828126,2013,-,converted from PM2.5,6,2013,"1 station, NA",measured data, NA, >75%,National Air Pollution Surveillance Network.,CA,FALSE,FALSE,FALSE,TRUE,327,48.4054903,-71.0678423
328,Amr HI,CAN,Canada,SAINT JOHN,8,2013,"1 station, NA",measured data,6.75,2013,"4 stations, NA",measured data, >75%, >75%,National Air Pollution Surveillance Network.,CA,FALSE,FALSE,TRUE,TRUE,328,45.2780145,-66.0558749
329,Amr HI,CAN,Canada,SAINT-FAUSTIN-LAC-CARRE,8.75434531901051,2013,-,converted from PM2.5,5,2013,"1 station, NA",measured data, NA, >75%,National Air Pollution Surveillance Network.,CA,FALSE,FALSE,FALSE,TRUE,329,46.1142125,-74.4818558
330,Amr HI,CAN,Canada,SAINT-JEAN-SUR-RICHELIEU,12.2560834466147,2013,-,converted from PM2.5,7,2013,"1 station, NA",measured data, NA, >75%,National Air Pollution Surveillance Network.,CA,FALSE,FALSE,FALSE,TRUE,330,45.3056879,-73.25334
331,Amr HI,CAN,Canada,SAINT-SIMON,15.7578215742189,2013,-,converted from PM2.5,9,2013,"1 station, NA",measured data, NA, >75%,National Air Pollution Surveillance Network.,CA,FALSE,FALSE,FALSE,TRUE,331,48.2028167,-69.0456812
332,Amr HI,CAN,Canada,SAINT-ZEPHIRIN-DE-COURVAL,14.0069525104168,2013,-,converted from PM2.5,8,2013,"1 station, NA",measured data, NA, >75%,National Air Pollution Surveillance Network.,CA,FALSE,FALSE,FALSE,TRUE,332,46.0588669,-72.6251858
333,Amr HI,CAN,Canada,SARNIA,14.0069525104168,2013,-,converted from PM2.5,8,2013,"1 station, NA",measured data, NA, >75%,National Air Pollution Surveillance Network.,CA,FALSE,FALSE,FALSE,TRUE,333,42.9923449,-82.3800378
334,Amr HI,CAN,Canada,SASKATOON,16,2013,"1 station, NA",measured data,9.13831898157775,2013,-,converted from PM10, <75%, NA,National Air Pollution Surveillance Network.,CA,FALSE,FALSE,FALSE,FALSE,334,52.1303794,-106.6605123
335,Amr HI,CAN,Canada,SAULT STE. MARIE,10.5052143828126,2013,-,converted from PM2.5,6,2013,"1 station, NA",measured data, NA, >75%,National Air Pollution Surveillance Network.,CA,FALSE,FALSE,FALSE,TRUE,335,46.5218221,-84.3194548
336,Amr HI,CAN,Canada,SENNETERRE,8.75434531901051,2013,-,converted from PM2.5,5,2013,"1 station, NA",measured data, NA, >75%,National Air Pollution Surveillance Network.,CA,FALSE,FALSE,FALSE,TRUE,336,48.39014,-77.2424717
337,Amr HI,CAN,Canada,SHERBROOKE,14.0069525104168,2013,-,converted from PM2.5,8,2013,"1 station, NA",measured data, NA, >75%,National Air Pollution Surveillance Network.,CA,FALSE,FALSE,FALSE,TRUE,337,45.4029964,-71.8876809
338,Amr HI,CAN,Canada,SIMCOE,14.0069525104168,2013,-,converted from PM2.5,8,2013,"1 station, NA",measured data, NA, >75%,National Air Pollution Surveillance Network.,CA,FALSE,FALSE,FALSE,TRUE,338,42.8358725,-80.3059587
339,Amr HI,CAN,Canada,ST. ANDREWS,12.2560834466147,2013,-,converted from PM2.5,7,2013,"1 station, NA",measured data, NA, >75%,National Air Pollution Surveillance Network.,CA,FALSE,FALSE,FALSE,TRUE,339,45.0834355,-67.0525837
340,Amr HI,CAN,Canada,ST. CATHARINES,14.0069525104168,2013,-,converted from PM2.5,8,2013,"1 station, NA",measured data, NA, >75%,National Air Pollution Surveillance Network.,CA,FALSE,FALSE,FALSE,TRUE,340,43.1654193,-79.2391708
341,Amr HI,CAN,Canada,ST. JOHN'S,8.75434531901051,2013,-,converted from PM2.5,5,2013,"1 station, NA",measured data, NA, >75%,National Air Pollution Surveillance Network.,CA,FALSE,FALSE,FALSE,TRUE,341,47.5614849,-52.7125838
342,Amr HI,CAN,Canada,ST-HILAIRE-DE-DORSET,7.0034762552084,2013,-,converted from PM2.5,4,2013,"1 station, NA",measured data, NA, >75%,National Air Pollution Surveillance Network.,CA,FALSE,FALSE,FALSE,TRUE,342,45.8652328,-70.8570433
343,Amr HI,CAN,Canada,STUKELY-SUD,8.75434531901051,2013,-,converted from PM2.5,5,2013,"1 station, NA",measured data, NA, >75%,National Air Pollution Surveillance Network.,CA,FALSE,FALSE,FALSE,TRUE,343,45.31678,-72.41581
344,Amr HI,CAN,Canada,SUDBURY,10.5052143828126,2013,-,converted from PM2.5,6,2013,"1 station, NA",measured data, NA, >75%,National Air Pollution Surveillance Network.,CA,FALSE,FALSE,FALSE,TRUE,344,46.4910993,-80.9907388
345,Amr HI,CAN,Canada,SURREY,12.2560834466147,2013,-,converted from PM2.5,7,2013,"1 station, NA",measured data, NA, >75%,National Air Pollution Surveillance Network.,CA,FALSE,FALSE,FALSE,TRUE,345,49.1850834,-122.8446548
346,Amr HI,CAN,Canada,SYDNEY,10.5052143828126,2013,-,converted from PM2.5,6,2013,"1 station, NA",measured data, NA, >75%,National Air Pollution Surveillance Network.,CA,FALSE,FALSE,FALSE,TRUE,346,46.1654766,-60.1735637
347,Amr HI,CAN,Canada,TERRACE,15,2013,"1 station, NA",measured data,8.56717404522914,2013,-,converted from PM10, >75%, NA,National Air Pollution Surveillance Network.,CA,FALSE,FALSE,TRUE,FALSE,347,54.5205722,-128.6060565
348,Amr HI,CAN,Canada,THOMSON,12,2013,"1 station, NA",measured data,4,2013,"1 station, NA",measured data, >75%, >75%,National Air Pollution Surveillance Network.,CA,FALSE,FALSE,TRUE,TRUE,348,43.6465582,-79.386338
349,Amr HI,CAN,Canada,THUNDER BAY,10.5052143828126,2013,-,converted from PM2.5,6,2013,"1 station, NA",measured data, NA, >75%,National Air Pollution Surveillance Network.,CA,FALSE,FALSE,FALSE,TRUE,349,48.4061651,-89.2591414
350,Amr HI,CAN,Canada,TINGWICK,12.2560834466147,2013,-,converted from PM2.5,7,2013,"1 station, NA",measured data, NA, >75%,National Air Pollution Surveillance Network.,CA,FALSE,FALSE,FALSE,TRUE,350,45.8813611,-71.9438504
351,Amr HI,CAN,Canada,TORONTO,14.3333333333333,2013,"3 stations, NA",measured data,8.4,2013,"5 stations, NA",measured data, NA, >75%,National Air Pollution Surveillance Network.,CA,FALSE,FALSE,FALSE,TRUE,351,43.6529206,-79.3849007
352,Amr HI,CAN,Canada,TROIS-RIVIERES,19.2595597018231,2013,-,converted from PM2.5,11,2013,"1 station, NA",measured data, NA, >75%,National Air Pollution Surveillance Network.,CA,FALSE,FALSE,FALSE,TRUE,352,46.3318149,-72.5557582
353,Amr HI,CAN,Canada,VANCOUVER,12.2560834466147,2013,-,converted from PM2.5,7,2013,"1 station, NA",measured data, NA, >75%,National Air Pollution Surveillance Network.,CA,FALSE,FALSE,FALSE,TRUE,353,49.2608944,-123.1139382
354,Amr HI,CAN,Canada,VANDERHOOF,21.0104287656252,2013,-,converted from PM2.5,12,2013,"1 station, NA",measured data, NA, >75%,National Air Pollution Surveillance Network.,CA,FALSE,FALSE,FALSE,TRUE,354,54.0166694,-124.0166724
355,Amr HI,CAN,Canada,VARENNES,15.7578215742189,2013,-,converted from PM2.5,9,2013,"1 station, NA",measured data, NA, >75%,National Air Pollution Surveillance Network.,CA,FALSE,FALSE,FALSE,TRUE,355,45.6835074,-73.4363799
356,Amr HI,CAN,Canada,VICTORIA,13.1315179785158,2013,-,converted from PM2.5,7.5,2013,"2 stations, NA",measured data, NA, >75%,National Air Pollution Surveillance Network.,CA,FALSE,FALSE,FALSE,TRUE,356,48.4283327,-123.3649268
357,Amr HI,CAN,Canada,WEST VANCOUVER,8.75434531901051,2013,-,converted from PM2.5,5,2013,"1 station, NA",measured data, NA, >75%,National Air Pollution Surveillance Network.,CA,FALSE,FALSE,FALSE,TRUE,357,49.3311158,-123.1594946
358,Amr HI,CAN,Canada,WHITEHORSE,10.5052143828126,2013,-,converted from PM2.5,6,2013,"1 station, NA",measured data, NA, >75%,National Air Pollution Surveillance Network.,CA,FALSE,FALSE,FALSE,TRUE,358,60.7206761,-135.0523078
359,Amr HI,CAN,Canada,WILLIAMS LAKE,15,2013,"1 station, NA",measured data,8.56717404522914,2013,-,converted from PM10, >75%, NA,National Air Pollution Surveillance Network.,CA,FALSE,FALSE,TRUE,FALSE,359,52.1291689,-122.1403122
360,Amr HI,CAN,Canada,WINDSOR,17,2013,"1 station, NA",measured data,9.5,2013,"2 stations, NA",measured data, NA, >75%,National Air Pollution Surveillance Network.,CA,FALSE,FALSE,FALSE,TRUE,360,42.3032758,-83.028511
361,Amr HI,CAN,Canada,WINNIPEG,17,2013,"1 station, NA",measured data,6.5,2013,"2 stations, NA",measured data, <75 % but annually representative, >75%,National Air Pollution Surveillance Network.,CA,TRUE,FALSE,FALSE,TRUE,361,49.8833343,-97.166674
362,Amr HI,CAN,Canada,YELLOWKNIFE,11,2013,"1 station, NA",measured data,6,2013,"1 station, NA",measured data, >75%, >75%,National Air Pollution Surveillance Network.,CA,FALSE,FALSE,TRUE,TRUE,362,62.4709394,-114.43849
363,Amr HI,CHL,Chile,Andacollo,66.83,2014,"1 station, NA",measured data,30.8474914067592,2014,-,converted from PM10, >75%, NA,Ministerio del Medio Ambiente,CL,FALSE,FALSE,TRUE,FALSE,363,-30.2322047,-71.0847555
364,Amr HI,CHL,Chile,Antofagasta,39.65,2014,"1 station, NA",measured data,12.18,2014,"1 station, NA",measured data, >75%, >75%,Ministerio del Medio Ambiente,CL,FALSE,FALSE,TRUE,TRUE,364,-23.646374,-70.3980032
365,Amr HI,CHL,Chile,Arica,32.8436042542508,2014,-,converted from PM2.5,15.16,2014,"1 station, NA",measured data, NA, >75%,Ministerio del Medio Ambiente,CL,FALSE,FALSE,FALSE,TRUE,365,-18.4785179,-70.3210595
366,Amr HI,CHL,Chile,Copiapó,47.45,2014,"1 station, NA",measured data,19.05,2014,"1 station, NA",measured data, >75%, >75%,Ministerio del Medio Ambiente,CL,FALSE,FALSE,TRUE,TRUE,366,-27.3664896,-70.3322732
367,Amr HI,CHL,Chile,Coquimbo,31.2404204054285,2014,-,converted from PM2.5,14.42,2014,"2 stations, NA",measured data, NA, >75%,Ministerio del Medio Ambiente,CL,FALSE,FALSE,FALSE,TRUE,367,-29.9531147,-71.3380212
368,Amr HI,CHL,Chile,Coyhaique,75.445,2014,"2 stations, NA",measured data,63.92,2014,"1 station, NA",measured data, >75%, >75%,Ministerio del Medio Ambiente,CL,FALSE,FALSE,TRUE,TRUE,368,-45.5711803,-72.0684862
369,Amr HI,CHL,Chile,Curico,50.58,2014,"1 station, NA",measured data,27.38,2014,"1 station, NA",measured data, >75%, >75%,Ministerio del Medio Ambiente,CL,FALSE,FALSE,TRUE,TRUE,369,-34.9853445,-71.2393882
370,Amr HI,CHL,Chile,Huasco,24.6327031906881,2014,-,converted from PM2.5,11.37,2014,"1 station, NA",measured data, NA, >75%,Ministerio del Medio Ambiente,CL,FALSE,FALSE,FALSE,TRUE,370,-28.4651068,-71.2208675
371,Amr HI,CHL,Chile,Maule,41.63,2014,"1 station, NA",measured data,21.57,2014,"1 station, NA",measured data, >75%, >75%,Ministerio del Medio Ambiente,CL,FALSE,FALSE,TRUE,TRUE,371,-35.5213469,-71.691889
372,Amr HI,CHL,Chile,Osorno,53.59,2014,"1 station, NA",measured data,34.57,2014,"1 station, NA",measured data, >75%, >75%,Ministerio del Medio Ambiente,CL,FALSE,FALSE,TRUE,TRUE,372,-40.5737818,-73.1358669
373,Amr HI,CHL,Chile,Padre las Casas,63.55,2014,"1 station, NA",measured data,34.91,2014,"1 station, NA",measured data, >75%, >75%,Ministerio del Medio Ambiente,CL,FALSE,FALSE,TRUE,TRUE,373,-38.76367,-72.5958757
374,Amr HI,CHL,Chile,Punta Arenas,11.8050659354494,2014,-,converted from PM2.5,5.449,2014,"1 station, NA",measured data, NA, >75%,Ministerio del Medio Ambiente,CL,FALSE,FALSE,FALSE,TRUE,374,-53.1626645,-70.9080976
375,Amr HI,CHL,Chile,Quilpué,39.85,2014,"1 station, NA",measured data,17.53,2014,"1 station, NA",measured data, <75 % but annually representative, >75%,Ministerio del Medio Ambiente,CL,TRUE,FALSE,FALSE,TRUE,375,-33.0498134,-71.4415281
376,Amr HI,CHL,Chile,Rancagua,75,2014,"2 stations, NA",measured data,29.825,2014,"2 stations, NA",measured data, >75%, >75%,Ministerio del Medio Ambiente,CL,FALSE,FALSE,TRUE,TRUE,376,-34.1702632,-70.7407487
377,Amr HI,CHL,Chile,Rengo,49.29,2014,"1 station, NA",measured data,22.7513519592871,2014,-,converted from PM10, >75%, NA,Ministerio del Medio Ambiente,CL,FALSE,FALSE,TRUE,FALSE,377,-34.4088743,-70.8616582
378,Amr HI,CHL,Chile,San Fernando,42.99,2014,"1 station, NA",measured data,19.8433885317459,2014,-,converted from PM10, >75%, NA,Ministerio del Medio Ambiente,CL,FALSE,FALSE,TRUE,FALSE,378,-34.5837721,-70.9891243
379,Amr HI,CHL,Chile,Santiago,64.41,2014,"10 stations, NA",measured data,28.771,2014,"10 stations, NA",measured data, >75%, >75%,Ministerio del Medio Ambiente,CL,FALSE,FALSE,TRUE,TRUE,379,-33.4377967,-70.650445
380,Amr HI,CHL,Chile,Talagante,40.6,2014,"1 station, NA",measured data,19.1,2014,"1 station, NA",measured data, >75%, >75%,Ministerio del Medio Ambiente,CL,FALSE,FALSE,TRUE,TRUE,380,-33.6644753,-70.9303452
381,Amr HI,CHL,Chile,Talca,49.435,2014,"2 stations, NA",measured data,25.32,2014,"2 stations, NA",measured data, >75%, >75%,Ministerio del Medio Ambiente,CL,FALSE,FALSE,TRUE,TRUE,381,-35.4264962,-71.6660245
382,Amr HI,CHL,Chile,Temuco,50.1,2014,"2 stations, NA",measured data,31,2014,"2 stations, NA",measured data, >75%, >75%,Ministerio del Medio Ambiente,CL,FALSE,FALSE,TRUE,TRUE,382,-38.7364596,-72.5927548
383,Amr HI,CHL,Chile,Valdivia,46.83,2014,"1 station, NA",measured data,28.75,2014,"1 station, NA",measured data, >75%, >75%,Ministerio del Medio Ambiente,CL,FALSE,FALSE,TRUE,TRUE,383,-39.8141964,-73.2458524
384,Amr HI,CHL,Chile,Valparaíso,34.0568244641703,2014,-,converted from PM2.5,15.72,2014,"1 station, NA",measured data, NA, >75%,Ministerio del Medio Ambiente,CL,FALSE,FALSE,FALSE,TRUE,384,-33.0458455,-71.6196748
385,Amr HI,CHL,Chile,Vina del Mar,33.74,2014,"1 station, NA",measured data,12.51,2014,"1 station, NA",measured data, <75 % but annually representative, >75%,Ministerio del Medio Ambiente,CL,TRUE,FALSE,FALSE,TRUE,385,-33.0245029,-71.5518118
386,Wpr LMI,CHN,China,Anshan,98.2853497216926,2014,-,converted from PM2.5,65.1428571428571,2014,"7 stations, NA",measured data, NA, <75 % but annually representative,China National Environmental Monitoring Center,CN,FALSE,TRUE,FALSE,FALSE,386,41.1075692,122.9900442
387,Wpr LMI,CHN,China,Anyang,119.494293609005,2014,-,converted from PM2.5,79.2,2014,"5 stations, NA",measured data, NA, <75 % but annually representative,China National Environmental Monitoring Center,CN,FALSE,TRUE,FALSE,FALSE,387,36.1023552,114.33633
388,Wpr LMI,CHN,China,Baoding,190.104558014326,2014,-,converted from PM2.5,126,2014,"6 stations, NA",measured data, NA, >75%,China National Environmental Monitoring Center,CN,FALSE,FALSE,FALSE,TRUE,388,38.857936,115.4906984
389,Wpr LMI,CHN,China,Baoji,97.5040242990147,2014,-,converted from PM2.5,64.625,2014,"8 stations, NA",measured data, NA, >75%,China National Environmental Monitoring Center,CN,FALSE,FALSE,FALSE,TRUE,389,34.3645811,107.2332184
390,Wpr LMI,CHN,China,Baotou,76.9470830057988,2014,-,converted from PM2.5,51,2014,"6 stations, NA",measured data, NA, >75%,China National Environmental Monitoring Center,CN,FALSE,FALSE,FALSE,TRUE,390,40.660201,109.8303243
391,Wpr LMI,CHN,China,Beihai,59.9734617545197,2014,-,converted from PM2.5,39.75,2014,"4 stations, NA",measured data, NA, <75 % but annually representative,China National Environmental Monitoring Center,CN,FALSE,TRUE,FALSE,FALSE,391,21.4799081,109.1068061
